[
  {
    "StopPointRef": "260007465",
    "CommonName": "Accommodation Centre",
    "Indicator": "adj",
    "Longitude": null,
    "Latitude": null
  },
  {
    "StopPointRef": "260007466",
    "CommonName": "Accommodation Centre",
    "Indicator": "opp",
    "Longitude": null,
    "Latitude": null
  },
  {
    "StopPointRef": "260007234",
    "CommonName": "Ashby Square",
    "Indicator": null,
    "Longitude": "-1.210018",
    "Latitude": "52.772064"
  },
  {
    "StopPointRef": "260007423",
    "CommonName": "Beacon Bingo",
    "Indicator": "adj",
    "Longitude": null,
    "Latitude": null
  },
  {
    "StopPointRef": "260008533",
    "CommonName": "Burleigh Road",
    "Indicator": "adj",
    "Longitude": null,
    "Latitude": null
  },
  {
    "StopPointRef": "260007463",
    "CommonName": "Computer Studies",
    "Indicator": "adj",
    "Longitude": null,
    "Latitude": null
  },
  {
    "StopPointRef": "260007464",
    "CommonName": "Computer Studies",
    "Indicator": "after",
    "Longitude": null,
    "Latitude": null
  },
  {
    "StopPointRef": "260007332",
    "CommonName": "Greenclose Lane",
    "Indicator": null,
    "Longitude": "-1.210217",
    "Latitude": "52.772523"
  },
  {
    "StopPointRef": "260007431",
    "CommonName": "Holywell Park",
    "Indicator": "outside",
    "Longitude": null,
    "Latitude": null
  },
  {
    "StopPointRef": "260007480",
    "CommonName": "Jack O'Lantern",
    "Indicator": "opp",
    "Longitude": null,
    "Latitude": null
  },
  {
    "StopPointRef": "260007430",
    "CommonName": "Mechanical Engineering",
    "Indicator": "opp",
    "Longitude": null,
    "Latitude": null
  },
  {
    "StopPointRef": "260007448",
    "CommonName": "Mechanical Engineering",
    "Indicator": "outside",
    "Longitude": null,
    "Latitude": null
  },
  {
    "StopPointRef": "260007467",
    "CommonName": "Pilkington Library",
    "Indicator": "opp",
    "Longitude": null,
    "Latitude": null
  },
  {
    "StopPointRef": "260007321",
    "CommonName": "Pilkington Library",
    "Indicator": "outside",
    "Longitude": null,
    "Latitude": null
  },
  {
    "StopPointRef": "260007424",
    "CommonName": "Radmoor Centre",
    "Indicator": "opposite",
    "Longitude": null,
    "Latitude": null
  },
  {
    "StopPointRef": "260007445",
    "CommonName": "Radmoor Centre",
    "Indicator": "outside",
    "Longitude": null,
    "Latitude": null
  },
  {
    "StopPointRef": "260007348",
    "CommonName": "Railway Station",
    "Indicator": "Stand A",
    "Longitude": null,
    "Latitude": null
  },
  {
    "StopPointRef": "260007451",
    "CommonName": "Railway Station",
    "Indicator": "Stand C",
    "Longitude": null,
    "Latitude": null
  },
  {
    "StopPointRef": "260007341",
    "CommonName": "Rectory Road",
    "Indicator": "adj",
    "Longitude": null,
    "Latitude": null
  },
  {
    "StopPointRef": "260007481",
    "CommonName": "Sense College",
    "Indicator": "opp",
    "Longitude": null,
    "Latitude": null
  },
  {
    "StopPointRef": "260007482",
    "CommonName": "Sense College",
    "Indicator": "outside",
    "Longitude": null,
    "Latitude": null
  },
  {
    "StopPointRef": "260007218",
    "CommonName": "STEM Lab",
    "Indicator": "adjacent",
    "Longitude": null,
    "Latitude": null
  },
  {
    "StopPointRef": "260007215",
    "CommonName": "STEM Lab",
    "Indicator": "opposite",
    "Longitude": null,
    "Latitude": null
  },
  {
    "StopPointRef": "260007428",
    "CommonName": "Student's Union",
    "Indicator": "adj",
    "Longitude": null,
    "Latitude": null
  },
  {
    "StopPointRef": "260007427",
    "CommonName": "Student's Union",
    "Indicator": "opp",
    "Longitude": null,
    "Latitude": null
  },
  {
    "StopPointRef": "260007436",
    "CommonName": "Swan Street",
    "Indicator": "Stand SB",
    "Longitude": null,
    "Latitude": null
  },
  {
    "StopPointRef": "260007343",
    "CommonName": "The Greyhound",
    "Indicator": "opp",
    "Longitude": null,
    "Latitude": null
  },
  {
    "StopPointRef": "260007213",
    "CommonName": "The Rushes",
    "Indicator": "Stand RA",
    "Longitude": null,
    "Latitude": null
  },
  {
    "StopPointRef": "260007214",
    "CommonName": "The Rushes",
    "Indicator": null,
    "Longitude": "-1.209945",
    "Latitude": "52.773645"
  },
  {
    "StopPointRef": "260007286",
    "CommonName": "Ball Court",
    "Indicator": "adj",
    "Longitude": null,
    "Latitude": null
  },
  {
    "StopPointRef": "260007356",
    "CommonName": "East Link Road",
    "Indicator": "adj",
    "Longitude": null,
    "Latitude": null
  },
  {
    "StopPointRef": "260006300",
    "CommonName": "Beaumont Road",
    "Indicator": "adj",
    "Longitude": null,
    "Latitude": null
  },
  {
    "StopPointRef": "260006302",
    "CommonName": "Beaumont Road",
    "Indicator": "opp",
    "Longitude": null,
    "Latitude": null
  },
  {
    "StopPointRef": "260006312",
    "CommonName": "Beveridge Street",
    "Indicator": "adj",
    "Longitude": null,
    "Latitude": null
  },
  {
    "StopPointRef": "260006303",
    "CommonName": "Brook Lane",
    "Indicator": "adj",
    "Longitude": null,
    "Latitude": null
  },
  {
    "StopPointRef": "260006308",
    "CommonName": "Brook Lane",
    "Indicator": "opp",
    "Longitude": null,
    "Latitude": null
  },
  {
    "StopPointRef": "260006324",
    "CommonName": "Crossley Close",
    "Indicator": "adj",
    "Longitude": null,
    "Latitude": null
  },
  {
    "StopPointRef": "260006323",
    "CommonName": "Crossley Close",
    "Indicator": "opp",
    "Longitude": null,
    "Latitude": null
  },
  {
    "StopPointRef": "260006301",
    "CommonName": "Ennerdale Road",
    "Indicator": "adj",
    "Longitude": null,
    "Latitude": null
  },
  {
    "StopPointRef": "260080159",
    "CommonName": "Ennerdale Road",
    "Indicator": "opp",
    "Longitude": null,
    "Latitude": null
  },
  {
    "StopPointRef": "260006321",
    "CommonName": "European Leisure",
    "Indicator": "adjacent",
    "Longitude": null,
    "Latitude": null
  },
  {
    "StopPointRef": "260006316",
    "CommonName": "European Leisure",
    "Indicator": "opp",
    "Longitude": null,
    "Latitude": null
  },
  {
    "StopPointRef": "260006313",
    "CommonName": "Grove Lane",
    "Indicator": "adj",
    "Longitude": null,
    "Latitude": null
  },
  {
    "StopPointRef": "260006326",
    "CommonName": "Hayhill",
    "Indicator": "adj",
    "Longitude": null,
    "Latitude": null
  },
  {
    "StopPointRef": "260006325",
    "CommonName": "Hayhill",
    "Indicator": "opp",
    "Longitude": null,
    "Latitude": null
  },
  {
    "StopPointRef": "260006319",
    "CommonName": "Huston Close",
    "Indicator": "adj",
    "Longitude": null,
    "Latitude": null
  },
  {
    "StopPointRef": "260006318",
    "CommonName": "Huston Close",
    "Indicator": "opp",
    "Longitude": null,
    "Latitude": null
  },
  {
    "StopPointRef": "260006315",
    "CommonName": "Mill Lane",
    "Indicator": "adj",
    "Longitude": null,
    "Latitude": null
  },
  {
    "StopPointRef": "260006309",
    "CommonName": "New Street",
    "Indicator": "adj",
    "Longitude": null,
    "Latitude": null
  },
  {
    "StopPointRef": "260006310",
    "CommonName": "New Street",
    "Indicator": "opp",
    "Longitude": null,
    "Latitude": null
  },
  {
    "StopPointRef": "260006307",
    "CommonName": "Newton Close",
    "Indicator": "opposite",
    "Longitude": null,
    "Latitude": null
  },
  {
    "StopPointRef": "260006304",
    "CommonName": "Newton Close",
    "Indicator": "outside",
    "Longitude": null,
    "Latitude": null
  },
  {
    "StopPointRef": "260006327",
    "CommonName": "Post Office",
    "Indicator": "adj",
    "Longitude": null,
    "Latitude": null
  },
  {
    "StopPointRef": "260006322",
    "CommonName": "Post Office",
    "Indicator": "opp",
    "Longitude": null,
    "Latitude": null
  },
  {
    "StopPointRef": "260006311",
    "CommonName": "Rail Station",
    "Indicator": "opp",
    "Longitude": null,
    "Latitude": null
  },
  {
    "StopPointRef": "260006306",
    "CommonName": "The Banks",
    "Indicator": "adjacent",
    "Longitude": null,
    "Latitude": null
  },
  {
    "StopPointRef": "260006305",
    "CommonName": "The Banks",
    "Indicator": "opposite",
    "Longitude": null,
    "Latitude": null
  },
  {
    "StopPointRef": "260006320",
    "CommonName": "The Pastures",
    "Indicator": "adj",
    "Longitude": null,
    "Latitude": null
  },
  {
    "StopPointRef": "260006317",
    "CommonName": "The Pastures",
    "Indicator": "opp",
    "Longitude": null,
    "Latitude": null
  },
  {
    "StopPointRef": "260007337",
    "CommonName": "Aumberry Gap",
    "Indicator": null,
    "Longitude": "-1.202563",
    "Latitude": "52.770369"
  },
  {
    "StopPointRef": "260007455",
    "CommonName": "Baxter Gate",
    "Indicator": "Stand BB",
    "Longitude": null,
    "Latitude": null
  },
  {
    "StopPointRef": "260007221",
    "CommonName": "Beeches Road",
    "Indicator": null,
    "Longitude": "-1.197402",
    "Latitude": "52.764113"
  },
  {
    "StopPointRef": "260007223",
    "CommonName": "Cemetery",
    "Indicator": null,
    "Longitude": "-1.194578",
    "Latitude": "52.759743"
  },
  {
    "StopPointRef": "260007224",
    "CommonName": "Cemetery",
    "Indicator": null,
    "Longitude": "-1.195368",
    "Latitude": "52.760252"
  },
  {
    "StopPointRef": "260007226",
    "CommonName": "Grammar School",
    "Indicator": null,
    "Longitude": "-1.199424",
    "Latitude": "52.766176"
  },
  {
    "StopPointRef": "260007220",
    "CommonName": "Grammar School",
    "Indicator": null,
    "Longitude": "-1.200118",
    "Latitude": "52.767134"
  },
  {
    "StopPointRef": "260007225",
    "CommonName": "Shelthorpe Road",
    "Indicator": null,
    "Longitude": "-1.197136",
    "Latitude": "52.763257"
  },
  {
    "StopPointRef": "260007222",
    "CommonName": "Shelthorpe Road",
    "Indicator": null,
    "Longitude": "-1.196513",
    "Latitude": "52.762498"
  },
  {
    "StopPointRef": "260007227",
    "CommonName": "Southfields Park",
    "Indicator": null,
    "Longitude": "-1.202102",
    "Latitude": "52.768864"
  },
  {
    "StopPointRef": "260007923",
    "CommonName": "Quorn Hall",
    "Indicator": "adj",
    "Longitude": null,
    "Latitude": null
  },
  {
    "StopPointRef": "260007924",
    "CommonName": "Quorn Hall",
    "Indicator": "opp",
    "Longitude": null,
    "Latitude": null
  },
  {
    "StopPointRef": "260007932",
    "CommonName": "Barrow Road",
    "Indicator": null,
    "Longitude": "-1.175962",
    "Latitude": "52.745762"
  },
  {
    "StopPointRef": "260007912",
    "CommonName": "Barrow Road",
    "Indicator": null,
    "Longitude": "-1.176363",
    "Latitude": "52.745737"
  },
  {
    "StopPointRef": "260007918",
    "CommonName": "Car Park",
    "Indicator": "adj",
    "Longitude": null,
    "Latitude": null
  },
  {
    "StopPointRef": "260007919",
    "CommonName": "Disraeli Street",
    "Indicator": "adj",
    "Longitude": null,
    "Latitude": null
  },
  {
    "StopPointRef": "260007929",
    "CommonName": "Farley Way",
    "Indicator": null,
    "Longitude": "-1.181532",
    "Latitude": "52.747373"
  },
  {
    "StopPointRef": "260007915",
    "CommonName": "Farley Way",
    "Indicator": null,
    "Longitude": "-1.178760",
    "Latitude": "52.746644"
  },
  {
    "StopPointRef": "260080018",
    "CommonName": "Fenney Copse Farm",
    "Indicator": "adj",
    "Longitude": null,
    "Latitude": null
  },
  {
    "StopPointRef": "260080019",
    "CommonName": "Fenney Copse Farm",
    "Indicator": "opp",
    "Longitude": null,
    "Latitude": null
  },
  {
    "StopPointRef": "260007921",
    "CommonName": "Freehold Street",
    "Indicator": "adj",
    "Longitude": null,
    "Latitude": null
  },
  {
    "StopPointRef": "260007922",
    "CommonName": "Freehold Street",
    "Indicator": "opp",
    "Longitude": null,
    "Latitude": null
  },
  {
    "StopPointRef": "260007913",
    "CommonName": "Main Street",
    "Indicator": null,
    "Longitude": "-1.191103",
    "Latitude": "52.756905"
  },
  {
    "StopPointRef": "260007914",
    "CommonName": "Main Street",
    "Indicator": null,
    "Longitude": "-1.189191",
    "Latitude": "52.756173"
  },
  {
    "StopPointRef": "260007934",
    "CommonName": "Peter McCaig Way",
    "Indicator": "adj",
    "Longitude": null,
    "Latitude": null
  },
  {
    "StopPointRef": "260007933",
    "CommonName": "Peter McCaig Way",
    "Indicator": "opp",
    "Longitude": null,
    "Latitude": null
  },
  {
    "StopPointRef": "260007920",
    "CommonName": "Stoop Lane",
    "Indicator": "opp",
    "Longitude": null,
    "Latitude": null
  },
  {
    "StopPointRef": "260007902",
    "CommonName": "Weavers Close",
    "Indicator": null,
    "Longitude": "-1.168249",
    "Latitude": "52.742400"
  },
  {
    "StopPointRef": "260007911",
    "CommonName": "Quorndon Fox",
    "Indicator": null,
    "Longitude": "-1.172631",
    "Latitude": "52.744102"
  },
  {
    "StopPointRef": "260007916",
    "CommonName": "Quorndon Fox",
    "Indicator": null,
    "Longitude": "-1.173154",
    "Latitude": "52.744627"
  },
  {
    "StopPointRef": "260008508",
    "CommonName": "Back Lane",
    "Indicator": "adj",
    "Longitude": null,
    "Latitude": null
  },
  {
    "StopPointRef": "260008528",
    "CommonName": "Barrow Road",
    "Indicator": "northbound",
    "Longitude": null,
    "Latitude": null
  },
  {
    "StopPointRef": "260008525",
    "CommonName": "Barrow Road",
    "Indicator": "southbound",
    "Longitude": null,
    "Latitude": null
  },
  {
    "StopPointRef": "260008519",
    "CommonName": "Collingwood Drive",
    "Indicator": "adj",
    "Longitude": null,
    "Latitude": null
  },
  {
    "StopPointRef": "260008517",
    "CommonName": "Gibson Road",
    "Indicator": "opposite",
    "Longitude": null,
    "Latitude": null
  },
  {
    "StopPointRef": "260008506",
    "CommonName": "Lovett Court",
    "Indicator": "adj",
    "Longitude": null,
    "Latitude": null
  },
  {
    "StopPointRef": "260008505",
    "CommonName": "Lovett Court",
    "Indicator": "opp",
    "Longitude": null,
    "Latitude": null
  },
  {
    "StopPointRef": "260008510",
    "CommonName": "Memorial Park",
    "Indicator": "outside",
    "Longitude": null,
    "Latitude": null
  },
  {
    "StopPointRef": "260008518",
    "CommonName": "Nebold Close",
    "Indicator": "outside",
    "Longitude": null,
    "Latitude": null
  },
  {
    "StopPointRef": "260008516",
    "CommonName": "Northill Close",
    "Indicator": "outside",
    "Longitude": null,
    "Latitude": null
  },
  {
    "StopPointRef": "260008509",
    "CommonName": "Post Office",
    "Indicator": "outside",
    "Longitude": null,
    "Latitude": null
  },
  {
    "StopPointRef": "260008515",
    "CommonName": "Storer Close",
    "Indicator": "opp",
    "Longitude": null,
    "Latitude": null
  },
  {
    "StopPointRef": "260008514",
    "CommonName": "Swan Street",
    "Indicator": "opp",
    "Longitude": null,
    "Latitude": null
  },
  {
    "StopPointRef": "260008529",
    "CommonName": "The Malt House",
    "Indicator": "opposite",
    "Longitude": null,
    "Latitude": null
  },
  {
    "StopPointRef": "260008530",
    "CommonName": "The Malt House",
    "Indicator": "outside",
    "Longitude": null,
    "Latitude": null
  },
  {
    "StopPointRef": "260008527",
    "CommonName": "Wrights Acre",
    "Indicator": "opposite",
    "Longitude": null,
    "Latitude": null
  },
  {
    "StopPointRef": "260008526",
    "CommonName": "Wrights Acre",
    "Indicator": "outside",
    "Longitude": null,
    "Latitude": null
  },
  {
    "StopPointRef": "260007252",
    "CommonName": "Ashleigh Drive",
    "Indicator": "adj",
    "Longitude": null,
    "Latitude": null
  },
  {
    "StopPointRef": "260007259",
    "CommonName": "Ashleigh Drive",
    "Indicator": "opp",
    "Longitude": null,
    "Latitude": null
  },
  {
    "StopPointRef": "260007285",
    "CommonName": "Atherstone Road",
    "Indicator": "opposite",
    "Longitude": null,
    "Latitude": null
  },
  {
    "StopPointRef": "260007284",
    "CommonName": "Atherstone Road",
    "Indicator": "outside",
    "Longitude": null,
    "Latitude": null
  },
  {
    "StopPointRef": "260007415",
    "CommonName": "Bagley Close",
    "Indicator": "opp",
    "Longitude": null,
    "Latitude": null
  },
  {
    "StopPointRef": "260007304",
    "CommonName": "Beaumont Road",
    "Indicator": "adj",
    "Longitude": null,
    "Latitude": null
  },
  {
    "StopPointRef": "260007301",
    "CommonName": "Beaumont Road",
    "Indicator": "opp",
    "Longitude": null,
    "Latitude": null
  },
  {
    "StopPointRef": "260007203",
    "CommonName": "Belton Road",
    "Indicator": "adj",
    "Longitude": null,
    "Latitude": null
  },
  {
    "StopPointRef": "260007208",
    "CommonName": "Belton Road",
    "Indicator": "opp",
    "Longitude": null,
    "Latitude": null
  },
  {
    "StopPointRef": "260007251",
    "CommonName": "Benscliffe Drive",
    "Indicator": "adj",
    "Longitude": null,
    "Latitude": null
  },
  {
    "StopPointRef": "260007260",
    "CommonName": "Benscliffe Drive",
    "Indicator": "opp",
    "Longitude": null,
    "Latitude": null
  },
  {
    "StopPointRef": "260007267",
    "CommonName": "Brookside Road",
    "Indicator": "adj",
    "Longitude": null,
    "Latitude": null
  },
  {
    "StopPointRef": "260007414",
    "CommonName": "Canning Way",
    "Indicator": "adj",
    "Longitude": null,
    "Latitude": null
  },
  {
    "StopPointRef": "260007409",
    "CommonName": "Canning Way",
    "Indicator": "opp",
    "Longitude": null,
    "Latitude": null
  },
  {
    "StopPointRef": "260007389",
    "CommonName": "Carington Street",
    "Indicator": "adj",
    "Longitude": null,
    "Latitude": null
  },
  {
    "StopPointRef": "260007391",
    "CommonName": "Carington Street",
    "Indicator": "opp",
    "Longitude": null,
    "Latitude": null
  },
  {
    "StopPointRef": "260007417",
    "CommonName": "Charteris Close",
    "Indicator": "adj",
    "Longitude": null,
    "Latitude": null
  },
  {
    "StopPointRef": "260007408",
    "CommonName": "Charteris Close",
    "Indicator": "opp",
    "Longitude": null,
    "Latitude": null
  },
  {
    "StopPointRef": "260007396",
    "CommonName": "Chiswick Drive",
    "Indicator": "adj",
    "Longitude": null,
    "Latitude": null
  },
  {
    "StopPointRef": "260007399",
    "CommonName": "Chiswick Drive",
    "Indicator": "opp",
    "Longitude": null,
    "Latitude": null
  },
  {
    "StopPointRef": "260007269",
    "CommonName": "Cleveland Road",
    "Indicator": "adj",
    "Longitude": null,
    "Latitude": null
  },
  {
    "StopPointRef": "260007270",
    "CommonName": "Cleveland Road",
    "Indicator": "opp",
    "Longitude": null,
    "Latitude": null
  },
  {
    "StopPointRef": "260007293",
    "CommonName": "Community Centre",
    "Indicator": "adj",
    "Longitude": null,
    "Latitude": null
  },
  {
    "StopPointRef": "260007296",
    "CommonName": "Community Centre",
    "Indicator": "opp",
    "Longitude": null,
    "Latitude": null
  },
  {
    "StopPointRef": "260007406",
    "CommonName": "Conway Close",
    "Indicator": "adj",
    "Longitude": null,
    "Latitude": null
  },
  {
    "StopPointRef": "260007407",
    "CommonName": "Cothelstone Avenue",
    "Indicator": "adj",
    "Longitude": null,
    "Latitude": null
  },
  {
    "StopPointRef": "260007205",
    "CommonName": "Derby Road",
    "Indicator": null,
    "Longitude": "-1.211631",
    "Latitude": "52.774654"
  },
  {
    "StopPointRef": "260007206",
    "CommonName": "Derby Road",
    "Indicator": "Stand DB",
    "Longitude": null,
    "Latitude": null
  },
  {
    "StopPointRef": "260007404",
    "CommonName": "Duncan Way",
    "Indicator": "opp",
    "Longitude": null,
    "Latitude": null
  },
  {
    "StopPointRef": "260007419",
    "CommonName": "Ellaby Road",
    "Indicator": "opp",
    "Longitude": null,
    "Latitude": null
  },
  {
    "StopPointRef": "260007420",
    "CommonName": "Ellaby Road",
    "Indicator": "outside",
    "Longitude": null,
    "Latitude": null
  },
  {
    "StopPointRef": "260007255",
    "CommonName": "Emmanuel Church",
    "Indicator": "adj",
    "Longitude": null,
    "Latitude": null
  },
  {
    "StopPointRef": "260007256",
    "CommonName": "Emmanuel Church",
    "Indicator": "opp",
    "Longitude": null,
    "Latitude": null
  },
  {
    "StopPointRef": "260007297",
    "CommonName": "Farnham Road",
    "Indicator": "adj",
    "Longitude": null,
    "Latitude": null
  },
  {
    "StopPointRef": "260007298",
    "CommonName": "Farnham Road",
    "Indicator": "opp",
    "Longitude": null,
    "Latitude": null
  },
  {
    "StopPointRef": "260007479",
    "CommonName": "Fennel Street",
    "Indicator": null,
    "Longitude": "-1.207705",
    "Latitude": "52.774538"
  },
  {
    "StopPointRef": "260007416",
    "CommonName": "Gavin Drive",
    "Indicator": "adj",
    "Longitude": null,
    "Latitude": null
  },
  {
    "StopPointRef": "260007418",
    "CommonName": "Grafton Road",
    "Indicator": "opp",
    "Longitude": null,
    "Latitude": null
  },
  {
    "StopPointRef": "260007421",
    "CommonName": "Grafton Road",
    "Indicator": "outside",
    "Longitude": null,
    "Latitude": null
  },
  {
    "StopPointRef": "260007439",
    "CommonName": "Grasmere Road",
    "Indicator": "adj",
    "Longitude": null,
    "Latitude": null
  },
  {
    "StopPointRef": "260007299",
    "CommonName": "Griggs Road",
    "Indicator": "opp",
    "Longitude": null,
    "Latitude": null
  },
  {
    "StopPointRef": "260007281",
    "CommonName": "Herrick Road",
    "Indicator": "opp",
    "Longitude": null,
    "Latitude": null
  },
  {
    "StopPointRef": "260007288",
    "CommonName": "Herrick Road",
    "Indicator": "outside",
    "Longitude": null,
    "Latitude": null
  },
  {
    "StopPointRef": "260007402",
    "CommonName": "Herriot Way",
    "Indicator": "adj",
    "Longitude": null,
    "Latitude": null
  },
  {
    "StopPointRef": "260006542",
    "CommonName": "High Street",
    "Indicator": "Stand HC",
    "Longitude": null,
    "Latitude": null
  },
  {
    "StopPointRef": "260007400",
    "CommonName": "Kensington Avenue",
    "Indicator": "adj",
    "Longitude": null,
    "Latitude": null
  },
  {
    "StopPointRef": "260007202",
    "CommonName": "Kings Avenue",
    "Indicator": "adj",
    "Longitude": null,
    "Latitude": null
  },
  {
    "StopPointRef": "260007209",
    "CommonName": "Kings Avenue",
    "Indicator": "opp",
    "Longitude": null,
    "Latitude": null
  },
  {
    "StopPointRef": "260007401",
    "CommonName": "Kinross Crescent",
    "Indicator": "opp",
    "Longitude": null,
    "Latitude": null
  },
  {
    "StopPointRef": "260007250",
    "CommonName": "Kirkstone Drive",
    "Indicator": "adj",
    "Longitude": null,
    "Latitude": null
  },
  {
    "StopPointRef": "260007261",
    "CommonName": "Kirkstone Drive",
    "Indicator": "opp",
    "Longitude": null,
    "Latitude": null
  },
  {
    "StopPointRef": "260007210",
    "CommonName": "Knightthorpe Road",
    "Indicator": "outside",
    "Longitude": null,
    "Latitude": null
  },
  {
    "StopPointRef": "260007290",
    "CommonName": "Lanesborough Court",
    "Indicator": "opp",
    "Longitude": null,
    "Latitude": null
  },
  {
    "StopPointRef": "260007279",
    "CommonName": "Lanesborough Court",
    "Indicator": "outside",
    "Longitude": null,
    "Latitude": null
  },
  {
    "StopPointRef": "260018577",
    "CommonName": "Laurel Road",
    "Indicator": "adj",
    "Longitude": null,
    "Latitude": null
  },
  {
    "StopPointRef": "260007397",
    "CommonName": "Leckhampton Road",
    "Indicator": "adj",
    "Longitude": null,
    "Latitude": null
  },
  {
    "StopPointRef": "260007398",
    "CommonName": "Leckhampton Road",
    "Indicator": "opp",
    "Longitude": null,
    "Latitude": null
  },
  {
    "StopPointRef": "260070067",
    "CommonName": "Ledbury Road",
    "Indicator": "adj",
    "Longitude": null,
    "Latitude": null
  },
  {
    "StopPointRef": "260007310",
    "CommonName": "Lemontree Lane",
    "Indicator": "opp",
    "Longitude": null,
    "Latitude": null
  },
  {
    "StopPointRef": "260007207",
    "CommonName": "Leopold Street",
    "Indicator": "adj",
    "Longitude": null,
    "Latitude": null
  },
  {
    "StopPointRef": "260007204",
    "CommonName": "Leopold Street",
    "Indicator": "opp",
    "Longitude": null,
    "Latitude": null
  },
  {
    "StopPointRef": "260007262",
    "CommonName": "Linford Road",
    "Indicator": "adj",
    "Longitude": null,
    "Latitude": null
  },
  {
    "StopPointRef": "260007268",
    "CommonName": "Linford Road",
    "Indicator": "opp",
    "Longitude": null,
    "Latitude": null
  },
  {
    "StopPointRef": "260007405",
    "CommonName": "Lorrimer Way",
    "Indicator": "adj",
    "Longitude": null,
    "Latitude": null
  },
  {
    "StopPointRef": "260007412",
    "CommonName": "Lyall Close",
    "Indicator": "opp",
    "Longitude": null,
    "Latitude": null
  },
  {
    "StopPointRef": "260007411",
    "CommonName": "Lyall Close",
    "Indicator": "outside",
    "Longitude": null,
    "Latitude": null
  },
  {
    "StopPointRef": "260007305",
    "CommonName": "Maple Road",
    "Indicator": "adj",
    "Longitude": null,
    "Latitude": null
  },
  {
    "StopPointRef": "260007311",
    "CommonName": "Maple Road",
    "Indicator": "opp",
    "Longitude": null,
    "Latitude": null
  },
  {
    "StopPointRef": "260007388",
    "CommonName": "Milton Street",
    "Indicator": "adj",
    "Longitude": null,
    "Latitude": null
  },
  {
    "StopPointRef": "260007392",
    "CommonName": "Milton Street",
    "Indicator": "opp",
    "Longitude": null,
    "Latitude": null
  },
  {
    "StopPointRef": "260007403",
    "CommonName": "Morrisons",
    "Indicator": "outside",
    "Longitude": null,
    "Latitude": null
  },
  {
    "StopPointRef": "260007422",
    "CommonName": "New Street",
    "Indicator": null,
    "Longitude": "-1.208199",
    "Latitude": "52.768554"
  },
  {
    "StopPointRef": "260007258",
    "CommonName": "Oaklands Avenue",
    "Indicator": "opposite",
    "Longitude": null,
    "Latitude": null
  },
  {
    "StopPointRef": "260007253",
    "CommonName": "Oaklands Avenue",
    "Indicator": "outside",
    "Longitude": null,
    "Latitude": null
  },
  {
    "StopPointRef": "260007289",
    "CommonName": "Oliver Road",
    "Indicator": "adj",
    "Longitude": null,
    "Latitude": null
  },
  {
    "StopPointRef": "260007280",
    "CommonName": "Oliver Road",
    "Indicator": "opp",
    "Longitude": null,
    "Latitude": null
  },
  {
    "StopPointRef": "260007308",
    "CommonName": "Outwoods Edge School",
    "Indicator": "adj",
    "Longitude": null,
    "Latitude": null
  },
  {
    "StopPointRef": "260007264",
    "CommonName": "Outwoods Road",
    "Indicator": "adj",
    "Longitude": null,
    "Latitude": null
  },
  {
    "StopPointRef": "260007265",
    "CommonName": "Outwoods Road",
    "Indicator": "opp",
    "Longitude": null,
    "Latitude": null
  },
  {
    "StopPointRef": "260007266",
    "CommonName": "Pantain Road",
    "Indicator": "adj",
    "Longitude": null,
    "Latitude": null
  },
  {
    "StopPointRef": "260007263",
    "CommonName": "Pantain Road",
    "Indicator": "opp",
    "Longitude": null,
    "Latitude": null
  },
  {
    "StopPointRef": "260007300",
    "CommonName": "Pultney Road",
    "Indicator": "adj",
    "Longitude": null,
    "Latitude": null
  },
  {
    "StopPointRef": "260007313",
    "CommonName": "Pultney Road",
    "Indicator": "opp",
    "Longitude": null,
    "Latitude": null
  },
  {
    "StopPointRef": "260007211",
    "CommonName": "Retail Park",
    "Indicator": "adj",
    "Longitude": null,
    "Latitude": null
  },
  {
    "StopPointRef": "260007201",
    "CommonName": "Retail Park",
    "Indicator": "opp",
    "Longitude": null,
    "Latitude": null
  },
  {
    "StopPointRef": "260007390",
    "CommonName": "Ring o Bells",
    "Indicator": "opp",
    "Longitude": null,
    "Latitude": null
  },
  {
    "StopPointRef": "260007291",
    "CommonName": "Royland Road",
    "Indicator": "opp",
    "Longitude": null,
    "Latitude": null
  },
  {
    "StopPointRef": "260007413",
    "CommonName": "Seton Close",
    "Indicator": "adj",
    "Longitude": null,
    "Latitude": null
  },
  {
    "StopPointRef": "260007410",
    "CommonName": "Seton Close",
    "Indicator": "opp",
    "Longitude": null,
    "Latitude": null
  },
  {
    "StopPointRef": "260007387",
    "CommonName": "Shelley Street",
    "Indicator": "adj",
    "Longitude": null,
    "Latitude": null
  },
  {
    "StopPointRef": "260007393",
    "CommonName": "Shelley Street",
    "Indicator": "opp",
    "Longitude": null,
    "Latitude": null
  },
  {
    "StopPointRef": "260007309",
    "CommonName": "Spindle Road",
    "Indicator": "adj",
    "Longitude": null,
    "Latitude": null
  },
  {
    "StopPointRef": "260007437",
    "CommonName": "Swan Street",
    "Indicator": "Stand SC",
    "Longitude": null,
    "Latitude": null
  },
  {
    "StopPointRef": "260070215",
    "CommonName": "The Rushes",
    "Indicator": "Stand RB",
    "Longitude": null,
    "Latitude": null
  },
  {
    "StopPointRef": "260007395",
    "CommonName": "Thorpe Acre Road",
    "Indicator": "adj",
    "Longitude": null,
    "Latitude": null
  },
  {
    "StopPointRef": "260070186",
    "CommonName": "Thorpe Acre Road",
    "Indicator": "opp",
    "Longitude": null,
    "Latitude": null
  },
  {
    "StopPointRef": "260007257",
    "CommonName": "Wallace Road",
    "Indicator": "adj",
    "Longitude": null,
    "Latitude": null
  },
  {
    "StopPointRef": "260007254",
    "CommonName": "Wallace Road",
    "Indicator": "opp",
    "Longitude": null,
    "Latitude": null
  },
  {
    "StopPointRef": "260007306",
    "CommonName": "Walnut Road",
    "Indicator": "adj",
    "Longitude": null,
    "Latitude": null
  },
  {
    "StopPointRef": "260007335",
    "CommonName": "Wards End",
    "Indicator": null,
    "Longitude": "-1.209018",
    "Latitude": "52.768362"
  },
  {
    "StopPointRef": "260007303",
    "CommonName": "Willow Road",
    "Indicator": "adj",
    "Longitude": null,
    "Latitude": null
  },
  {
    "StopPointRef": "260007302",
    "CommonName": "Willow Road",
    "Indicator": "opp",
    "Longitude": null,
    "Latitude": null
  },
  {
    "StopPointRef": "260007386",
    "CommonName": "Windsor Road",
    "Indicator": "adj",
    "Longitude": null,
    "Latitude": null
  },
  {
    "StopPointRef": "260007394",
    "CommonName": "Windsor Road",
    "Indicator": "opp",
    "Longitude": null,
    "Latitude": null
  },
  {
    "StopPointRef": "260007295",
    "CommonName": "Woodthorpe Road",
    "Indicator": "adj",
    "Longitude": null,
    "Latitude": null
  },
  {
    "StopPointRef": "260007292",
    "CommonName": "Woodthorpe Road",
    "Indicator": "opp",
    "Longitude": null,
    "Latitude": null
  },
  {
    "StopPointRef": "260007294",
    "CommonName": "Woodthorpe Road",
    "Indicator": "outside",
    "Longitude": null,
    "Latitude": null
  },
  {
    "StopPointRef": "260007373",
    "CommonName": "Albany Street",
    "Indicator": "adj",
    "Longitude": null,
    "Latitude": null
  },
  {
    "StopPointRef": "260007361",
    "CommonName": "Albany Street",
    "Indicator": "opp",
    "Longitude": null,
    "Latitude": null
  },
  {
    "StopPointRef": "260007275",
    "CommonName": "Beacon Drive",
    "Indicator": "opp",
    "Longitude": null,
    "Latitude": null
  },
  {
    "StopPointRef": "260007476",
    "CommonName": "Blackbrook Road",
    "Indicator": null,
    "Longitude": "-1.239683",
    "Latitude": "52.767520"
  },
  {
    "StopPointRef": "260007327",
    "CommonName": "Booth Wood Primary School",
    "Indicator": null,
    "Longitude": "-1.240841",
    "Latitude": "52.767446"
  },
  {
    "StopPointRef": "260007370",
    "CommonName": "Burns Road",
    "Indicator": null,
    "Longitude": "-1.230441",
    "Latitude": "52.773879"
  },
  {
    "StopPointRef": "260007364",
    "CommonName": "Burns Road",
    "Indicator": null,
    "Longitude": "-1.230354",
    "Latitude": "52.773797"
  },
  {
    "StopPointRef": "260007453",
    "CommonName": "Butterley Drive",
    "Indicator": "adj",
    "Longitude": null,
    "Latitude": null
  },
  {
    "StopPointRef": "260007384",
    "CommonName": "Charnwood College",
    "Indicator": "adj",
    "Longitude": null,
    "Latitude": null
  },
  {
    "StopPointRef": "260007385",
    "CommonName": "Charnwood College",
    "Indicator": "opp",
    "Longitude": null,
    "Latitude": null
  },
  {
    "StopPointRef": "260007359",
    "CommonName": "Cross Hill Lane",
    "Indicator": "opp",
    "Longitude": null,
    "Latitude": null
  },
  {
    "StopPointRef": "260007372",
    "CommonName": "Deane Street",
    "Indicator": "adj",
    "Longitude": null,
    "Latitude": null
  },
  {
    "StopPointRef": "260007362",
    "CommonName": "Deane Street",
    "Indicator": "opp",
    "Longitude": null,
    "Latitude": null
  },
  {
    "StopPointRef": "260007363",
    "CommonName": "Epinal Way",
    "Indicator": "opposite",
    "Longitude": null,
    "Latitude": null
  },
  {
    "StopPointRef": "260007371",
    "CommonName": "Epinal Way",
    "Indicator": "outside",
    "Longitude": null,
    "Latitude": null
  },
  {
    "StopPointRef": "260007271",
    "CommonName": "Farndale Drive",
    "Indicator": "opp",
    "Longitude": null,
    "Latitude": null
  },
  {
    "StopPointRef": "260007272",
    "CommonName": "Farnham Road",
    "Indicator": "SE Bound",
    "Longitude": null,
    "Latitude": null
  },
  {
    "StopPointRef": "260007368",
    "CommonName": "Garendon Road",
    "Indicator": "outside",
    "Longitude": null,
    "Latitude": null
  },
  {
    "StopPointRef": "260007444",
    "CommonName": "Grassholme Drive",
    "Indicator": "opp",
    "Longitude": null,
    "Latitude": null
  },
  {
    "StopPointRef": "260070060",
    "CommonName": "Green",
    "Indicator": "opp",
    "Longitude": null,
    "Latitude": null
  },
  {
    "StopPointRef": "260007469",
    "CommonName": "Hermitage Road",
    "Indicator": "adj",
    "Longitude": null,
    "Latitude": null
  },
  {
    "StopPointRef": "260080201",
    "CommonName": "Herrick Road",
    "Indicator": "adj",
    "Longitude": null,
    "Latitude": null
  },
  {
    "StopPointRef": "260007426",
    "CommonName": "Jitty",
    "Indicator": "opp",
    "Longitude": null,
    "Latitude": null
  },
  {
    "StopPointRef": "260070063",
    "CommonName": "Lingdale Close",
    "Indicator": "adj",
    "Longitude": null,
    "Latitude": null
  },
  {
    "StopPointRef": "260007438",
    "CommonName": "Manor Road",
    "Indicator": "adj",
    "Longitude": null,
    "Latitude": null
  },
  {
    "StopPointRef": "260070064",
    "CommonName": "Maple Road South",
    "Indicator": "opp",
    "Longitude": null,
    "Latitude": null
  },
  {
    "StopPointRef": "260070066",
    "CommonName": "Poplar Road",
    "Indicator": "adj",
    "Longitude": null,
    "Latitude": null
  },
  {
    "StopPointRef": "260007452",
    "CommonName": "Redmires Close",
    "Indicator": "opp",
    "Longitude": null,
    "Latitude": null
  },
  {
    "StopPointRef": "260070062",
    "CommonName": "Rivington Drive",
    "Indicator": "adj",
    "Longitude": null,
    "Latitude": null
  },
  {
    "StopPointRef": "260007367",
    "CommonName": "Rupert Brooke Road",
    "Indicator": "adj",
    "Longitude": null,
    "Latitude": null
  },
  {
    "StopPointRef": "260007366",
    "CommonName": "Rupert Brooke Road",
    "Indicator": "opp",
    "Longitude": null,
    "Latitude": null
  },
  {
    "StopPointRef": "260007273",
    "CommonName": "Sharpley Road",
    "Indicator": "SE Bound",
    "Longitude": null,
    "Latitude": null
  },
  {
    "StopPointRef": "260007349",
    "CommonName": "Shops",
    "Indicator": "adj",
    "Longitude": null,
    "Latitude": null
  },
  {
    "StopPointRef": "260007369",
    "CommonName": "Tennyson Road",
    "Indicator": null,
    "Longitude": "-1.231726",
    "Latitude": "52.773348"
  },
  {
    "StopPointRef": "260007365",
    "CommonName": "Tennyson Road",
    "Indicator": null,
    "Longitude": "-1.231908",
    "Latitude": "52.773115"
  },
  {
    "StopPointRef": "260007338",
    "CommonName": "Tesco",
    "Indicator": "opp",
    "Longitude": null,
    "Latitude": null
  },
  {
    "StopPointRef": "260007374",
    "CommonName": "Tyler Avenue",
    "Indicator": "adj",
    "Longitude": null,
    "Latitude": null
  },
  {
    "StopPointRef": "260007360",
    "CommonName": "Tyler Avenue",
    "Indicator": "opp",
    "Longitude": null,
    "Latitude": null
  },
  {
    "StopPointRef": "260070065",
    "CommonName": "Walnut Road",
    "Indicator": "before",
    "Longitude": null,
    "Latitude": null
  },
  {
    "StopPointRef": "260007324",
    "CommonName": "Windleden Road",
    "Indicator": null,
    "Longitude": "-1.246454",
    "Latitude": "52.765091"
  },
  {
    "StopPointRef": "109000022116",
    "CommonName": "Bembridge Drive Top",
    "Indicator": "NW-bound",
    "Longitude": null,
    "Latitude": null
  },
  {
    "StopPointRef": "109000022117",
    "CommonName": "Bembridge Drive Top",
    "Indicator": "SE-bound",
    "Longitude": null,
    "Latitude": null
  },
  {
    "StopPointRef": "1090DASR3618",
    "CommonName": "Blue Peter",
    "Indicator": null,
    "Longitude": "-1.428053",
    "Latitude": "52.895887"
  },
  {
    "StopPointRef": "1090DASB3619",
    "CommonName": "Blue Peter",
    "Indicator": null,
    "Longitude": "-1.427854",
    "Latitude": "52.896290"
  },
  {
    "StopPointRef": "109000009914",
    "CommonName": "Lindon Drive",
    "Indicator": "adj",
    "Longitude": null,
    "Latitude": null
  },
  {
    "StopPointRef": "109000009915",
    "CommonName": "Lindon Drive",
    "Indicator": "opp",
    "Longitude": null,
    "Latitude": null
  },
  {
    "StopPointRef": "109000009909",
    "CommonName": "Nunsfield Drive",
    "Indicator": "Adj",
    "Longitude": null,
    "Latitude": null
  },
  {
    "StopPointRef": "109000009908",
    "CommonName": "Nunsfield Drive",
    "Indicator": "Opp",
    "Longitude": null,
    "Latitude": null
  },
  {
    "StopPointRef": "109000009879",
    "CommonName": "The Lodge",
    "Indicator": "Adj",
    "Longitude": null,
    "Latitude": null
  },
  {
    "StopPointRef": "109000009878",
    "CommonName": "The Lodge",
    "Indicator": "Opp",
    "Longitude": null,
    "Latitude": null
  },
  {
    "StopPointRef": "109000009905",
    "CommonName": "Wye Street",
    "Indicator": null,
    "Longitude": "-1.431017",
    "Latitude": "52.897690"
  },
  {
    "StopPointRef": "109000009906",
    "CommonName": "Wye Street",
    "Indicator": null,
    "Longitude": "-1.431759",
    "Latitude": "52.897747"
  },
  {
    "StopPointRef": "269033004",
    "CommonName": "Corporation Road",
    "Indicator": "adj",
    "Longitude": null,
    "Latitude": null
  },
  {
    "StopPointRef": "269033005",
    "CommonName": "Corporation Road",
    "Indicator": "opp",
    "Longitude": null,
    "Latitude": null
  },
  {
    "StopPointRef": "269033002",
    "CommonName": "Thurcaston Road",
    "Indicator": "adj",
    "Longitude": null,
    "Latitude": null
  },
  {
    "StopPointRef": "269033007",
    "CommonName": "Thurcaston Road",
    "Indicator": "opp",
    "Longitude": null,
    "Latitude": null
  },
  {
    "StopPointRef": "260006503",
    "CommonName": "Greengate Lane",
    "Indicator": null,
    "Longitude": "-1.125892",
    "Latitude": "52.681279"
  },
  {
    "StopPointRef": "260006506",
    "CommonName": "Greengate Lane",
    "Indicator": null,
    "Longitude": "-1.125543",
    "Latitude": "52.678750"
  },
  {
    "StopPointRef": "260006547",
    "CommonName": "Red Hill Circle",
    "Indicator": null,
    "Longitude": "-1.129318",
    "Latitude": "52.665860"
  },
  {
    "StopPointRef": "260006511",
    "CommonName": "Red Hill Circle",
    "Indicator": null,
    "Longitude": "-1.129341",
    "Latitude": "52.665747"
  },
  {
    "StopPointRef": "260013603",
    "CommonName": "Bus Station",
    "Indicator": null,
    "Longitude": "-1.341197",
    "Latitude": "52.840538"
  },
  {
    "StopPointRef": "260013650",
    "CommonName": "Bus Station",
    "Indicator": null,
    "Longitude": "-1.341344",
    "Latitude": "52.840647"
  },
  {
    "StopPointRef": "260013626",
    "CommonName": "Donington Park",
    "Indicator": "opposite",
    "Longitude": null,
    "Latitude": null
  },
  {
    "StopPointRef": "260013625",
    "CommonName": "Donington Park",
    "Indicator": "outside",
    "Longitude": null,
    "Latitude": null
  },
  {
    "StopPointRef": "260013616",
    "CommonName": "Gasny Avenue",
    "Indicator": null,
    "Longitude": "-1.335701",
    "Latitude": "52.850837"
  },
  {
    "StopPointRef": "260013617",
    "CommonName": "Gasny Avenue",
    "Indicator": null,
    "Longitude": "-1.335446",
    "Latitude": "52.851034"
  },
  {
    "StopPointRef": "260013602",
    "CommonName": "High Street",
    "Indicator": null,
    "Longitude": "-1.344376",
    "Latitude": "52.837860"
  },
  {
    "StopPointRef": "260013612",
    "CommonName": "High Street",
    "Indicator": null,
    "Longitude": "-1.344004",
    "Latitude": "52.837920"
  },
  {
    "StopPointRef": "260013600",
    "CommonName": "Nags Head",
    "Indicator": null,
    "Longitude": "-1.347249",
    "Latitude": "52.834369"
  },
  {
    "StopPointRef": "260013601",
    "CommonName": "Nags Head",
    "Indicator": null,
    "Longitude": "-1.347714",
    "Latitude": "52.834039"
  },
  {
    "StopPointRef": "260013629",
    "CommonName": "Newbold Drive",
    "Indicator": null,
    "Longitude": "-1.336277",
    "Latitude": "52.849106"
  },
  {
    "StopPointRef": "260013619",
    "CommonName": "The Lamb",
    "Indicator": null,
    "Longitude": "-1.337007",
    "Latitude": "52.846017"
  },
  {
    "StopPointRef": "260013614",
    "CommonName": "The Lamb",
    "Indicator": null,
    "Longitude": "-1.337185",
    "Latitude": "52.846072"
  },
  {
    "StopPointRef": "260013615",
    "CommonName": "Trent Lane",
    "Indicator": null,
    "Longitude": "-1.336990",
    "Latitude": "52.848139"
  },
  {
    "StopPointRef": "260013632",
    "CommonName": "Willow Farm Business Park",
    "Indicator": null,
    "Longitude": "-1.334495",
    "Latitude": "52.854004"
  },
  {
    "StopPointRef": "260013633",
    "CommonName": "Willow Farm Business Park",
    "Indicator": null,
    "Longitude": "-1.334279",
    "Latitude": "52.854118"
  },
  {
    "StopPointRef": "260013624",
    "CommonName": "Back Lane",
    "Indicator": "adj",
    "Longitude": null,
    "Latitude": null
  },
  {
    "StopPointRef": "260080049",
    "CommonName": "Back Lane",
    "Indicator": "opp",
    "Longitude": null,
    "Latitude": null
  },
  {
    "StopPointRef": "260080066",
    "CommonName": "Donington Lane",
    "Indicator": "adj",
    "Longitude": null,
    "Latitude": null
  },
  {
    "StopPointRef": "260080060",
    "CommonName": "Donington Lane",
    "Indicator": "opp",
    "Longitude": null,
    "Latitude": null
  },
  {
    "StopPointRef": "109000009403",
    "CommonName": "Meadow Lane",
    "Indicator": null,
    "Longitude": "-1.438585",
    "Latitude": "52.902158"
  },
  {
    "StopPointRef": "109000009402",
    "CommonName": "Meadow Lane",
    "Indicator": null,
    "Longitude": "-1.439251",
    "Latitude": "52.902368"
  },
  {
    "StopPointRef": "109000009907",
    "CommonName": "Spencer Street",
    "Indicator": null,
    "Longitude": "-1.435326",
    "Latitude": "52.900111"
  },
  {
    "StopPointRef": "109000009856",
    "CommonName": "Wisgreaves Road",
    "Indicator": null,
    "Longitude": "-1.436713",
    "Latitude": "52.900881"
  },
  {
    "StopPointRef": "109000009374",
    "CommonName": "Bloomfield Street",
    "Indicator": null,
    "Longitude": "-1.464968",
    "Latitude": "52.913480"
  },
  {
    "StopPointRef": "109000009373",
    "CommonName": "Bloomfield Street",
    "Indicator": null,
    "Longitude": "-1.464834",
    "Latitude": "52.913534"
  },
  {
    "StopPointRef": "1090BSTN08",
    "CommonName": "Bus Station",
    "Indicator": "Bay 8",
    "Longitude": null,
    "Latitude": null
  },
  {
    "StopPointRef": "109000009369",
    "CommonName": "Calvert Street",
    "Indicator": null,
    "Longitude": "-1.464047",
    "Latitude": "52.918214"
  },
  {
    "StopPointRef": "109000009370",
    "CommonName": "Calvert Street",
    "Indicator": null,
    "Longitude": "-1.463912",
    "Latitude": "52.918321"
  },
  {
    "StopPointRef": "109052310",
    "CommonName": "Siddals Road",
    "Indicator": null,
    "Longitude": "-1.468856",
    "Latitude": "52.920294"
  },
  {
    "StopPointRef": "109052312",
    "CommonName": "Siddals Road",
    "Indicator": null,
    "Longitude": "-1.468602",
    "Latitude": "52.920311"
  },
  {
    "StopPointRef": "109000009302",
    "CommonName": "Midland Road",
    "Indicator": null,
    "Longitude": "-1.466648",
    "Latitude": "52.914719"
  },
  {
    "StopPointRef": "109000009300",
    "CommonName": "Midland Road",
    "Indicator": null,
    "Longitude": "-1.466360",
    "Latitude": "52.915159"
  },
  {
    "StopPointRef": "109000022150",
    "CommonName": "Morledge",
    "Indicator": null,
    "Longitude": "-1.473138",
    "Latitude": "52.921643"
  },
  {
    "StopPointRef": "1090DDRS1339",
    "CommonName": "Railway Station",
    "Indicator": null,
    "Longitude": "-1.463894",
    "Latitude": "52.916154"
  },
  {
    "StopPointRef": "109000009371",
    "CommonName": "Railway Station",
    "Indicator": null,
    "Longitude": "-1.463971",
    "Latitude": "52.915939"
  },
  {
    "StopPointRef": "260013636",
    "CommonName": "Building 100",
    "Indicator": null,
    "Longitude": "-1.322459",
    "Latitude": "52.826733"
  },
  {
    "StopPointRef": "260013637",
    "CommonName": "Building 100",
    "Indicator": null,
    "Longitude": "-1.322373",
    "Latitude": "52.826571"
  },
  {
    "StopPointRef": "260013646",
    "CommonName": "Coach Park",
    "Indicator": "Bay A",
    "Longitude": null,
    "Latitude": null
  },
  {
    "StopPointRef": "260018563",
    "CommonName": "Coach Park",
    "Indicator": "Bay B",
    "Longitude": null,
    "Latitude": null
  },
  {
    "StopPointRef": "260013635",
    "CommonName": "DHL Cargo East",
    "Indicator": null,
    "Longitude": "-1.316167",
    "Latitude": "52.826688"
  },
  {
    "StopPointRef": "260013634",
    "CommonName": "DHL Cargo East",
    "Indicator": null,
    "Longitude": "-1.314577",
    "Latitude": "52.826832"
  },
  {
    "StopPointRef": "260080173",
    "CommonName": "DHL Cargo West Extension",
    "Indicator": null,
    "Longitude": "-1.354650",
    "Latitude": "52.825219"
  },
  {
    "StopPointRef": "260014801",
    "CommonName": "DHL Cargo West Extension",
    "Indicator": null,
    "Longitude": "-1.354156",
    "Latitude": "52.825014"
  },
  {
    "StopPointRef": "260013631",
    "CommonName": "DHL Cargo West",
    "Indicator": null,
    "Longitude": "-1.350244",
    "Latitude": "52.824623"
  },
  {
    "StopPointRef": "260013630",
    "CommonName": "DHL Cargo West",
    "Indicator": null,
    "Longitude": "-1.350187",
    "Latitude": "52.824470"
  },
  {
    "StopPointRef": "260070010",
    "CommonName": "EMA Departure Building",
    "Indicator": null,
    "Longitude": "-1.331005",
    "Latitude": "52.824984"
  },
  {
    "StopPointRef": "260013640",
    "CommonName": "EMA Departure Building",
    "Indicator": null,
    "Longitude": "-1.331562",
    "Latitude": "52.824859"
  },
  {
    "StopPointRef": "260013639",
    "CommonName": "Maintenance Area",
    "Indicator": null,
    "Longitude": "-1.338343",
    "Latitude": "52.823595"
  },
  {
    "StopPointRef": "260013638",
    "CommonName": "Maintenance Area",
    "Indicator": null,
    "Longitude": "-1.338266",
    "Latitude": "52.823748"
  },
  {
    "StopPointRef": "260014629",
    "CommonName": "Pegasus Business Park",
    "Indicator": null,
    "Longitude": "-1.311970",
    "Latitude": "52.825125"
  },
  {
    "StopPointRef": "260014628",
    "CommonName": "Pegasus Business Park",
    "Indicator": null,
    "Longitude": "-1.312387",
    "Latitude": "52.825056"
  },
  {
    "StopPointRef": "260014500",
    "CommonName": "Thistle Hotel",
    "Indicator": "opp",
    "Longitude": null,
    "Latitude": null
  },
  {
    "StopPointRef": "260013627",
    "CommonName": "Training Centre",
    "Indicator": null,
    "Longitude": "-1.334993",
    "Latitude": "52.823325"
  },
  {
    "StopPointRef": "260013628",
    "CommonName": "Training Centre",
    "Indicator": null,
    "Longitude": "-1.335021",
    "Latitude": "52.823460"
  },
  {
    "StopPointRef": "260008004",
    "CommonName": "Interchange",
    "Indicator": "Stand 1",
    "Longitude": null,
    "Latitude": null
  },
  {
    "StopPointRef": "260008001",
    "CommonName": "Interchange",
    "Indicator": "Stand 2",
    "Longitude": null,
    "Latitude": null
  },
  {
    "StopPointRef": "260007004",
    "CommonName": "Anchor Inn",
    "Indicator": "opp",
    "Longitude": null,
    "Latitude": null
  },
  {
    "StopPointRef": "260007001",
    "CommonName": "Anchor Inn",
    "Indicator": "outside",
    "Longitude": null,
    "Latitude": null
  },
  {
    "StopPointRef": "260007003",
    "CommonName": "Edward Phillipps Road",
    "Indicator": "opp",
    "Longitude": null,
    "Latitude": null
  },
  {
    "StopPointRef": "260007002",
    "CommonName": "Edward Phillipps Road",
    "Indicator": "outside",
    "Longitude": null,
    "Latitude": null
  },
  {
    "StopPointRef": "260007005",
    "CommonName": "Shepshed Road",
    "Indicator": "adj",
    "Longitude": null,
    "Latitude": null
  },
  {
    "StopPointRef": "260007000",
    "CommonName": "Shepshed Road",
    "Indicator": "opp",
    "Longitude": null,
    "Latitude": null
  },
  {
    "StopPointRef": "260014408",
    "CommonName": "Church",
    "Indicator": "opposite",
    "Longitude": null,
    "Latitude": null
  },
  {
    "StopPointRef": "260014407",
    "CommonName": "Church",
    "Indicator": "outside",
    "Longitude": null,
    "Latitude": null
  },
  {
    "StopPointRef": "260014402",
    "CommonName": "Packington Hill",
    "Indicator": "adj",
    "Longitude": null,
    "Latitude": null
  },
  {
    "StopPointRef": "260014403",
    "CommonName": "Packington Hill",
    "Indicator": "opp",
    "Longitude": null,
    "Latitude": null
  },
  {
    "StopPointRef": "260014400",
    "CommonName": "Suthers Road",
    "Indicator": "adjacent",
    "Longitude": null,
    "Latitude": null
  },
  {
    "StopPointRef": "260014401",
    "CommonName": "Suthers Road",
    "Indicator": "opp",
    "Longitude": null,
    "Latitude": null
  },
  {
    "StopPointRef": "260014422",
    "CommonName": "Whatton Road",
    "Indicator": "opposite",
    "Longitude": null,
    "Latitude": null
  },
  {
    "StopPointRef": "269030091",
    "CommonName": "St Margaret's Bus Station",
    "Indicator": "Stand SV",
    "Longitude": null,
    "Latitude": null
  },
  {
    "StopPointRef": "109000009348",
    "CommonName": "Brunel House",
    "Indicator": null,
    "Longitude": "-1.459594",
    "Latitude": "52.910346"
  },
  {
    "StopPointRef": "1090DDMC1306",
    "CommonName": "Brunel House",
    "Indicator": null,
    "Longitude": "-1.459847",
    "Latitude": "52.910392"
  },
  {
    "StopPointRef": "109000009350",
    "CommonName": "Railway Technical Centre",
    "Indicator": null,
    "Longitude": "-1.456804",
    "Latitude": "52.908706"
  },
  {
    "StopPointRef": "109000009349",
    "CommonName": "Railway Technical Centre",
    "Indicator": null,
    "Longitude": "-1.457632",
    "Latitude": "52.909096"
  },
  {
    "StopPointRef": "260007200",
    "CommonName": "Bishop Meadow Road",
    "Indicator": "adj",
    "Longitude": null,
    "Latitude": null
  },
  {
    "StopPointRef": "260007212",
    "CommonName": "High Street",
    "Indicator": "Stand HB",
    "Longitude": null,
    "Latitude": null
  },
  {
    "StopPointRef": "260007333",
    "CommonName": "Lemyngton Street",
    "Indicator": "Stand LA",
    "Longitude": null,
    "Latitude": null
  },
  {
    "StopPointRef": "260007484",
    "CommonName": "Pear Tree View",
    "Indicator": "adjacent",
    "Longitude": null,
    "Latitude": null
  },
  {
    "StopPointRef": "260007483",
    "CommonName": "Pear Tree View",
    "Indicator": "opp",
    "Longitude": null,
    "Latitude": null
  },
  {
    "StopPointRef": "100000022068",
    "CommonName": "Cavendish Bridge",
    "Indicator": "Adj",
    "Longitude": null,
    "Latitude": null
  },
  {
    "StopPointRef": "100000022069",
    "CommonName": "Cavendish Bridge",
    "Indicator": "Opp",
    "Longitude": null,
    "Latitude": null
  },
  {
    "StopPointRef": "100000022060",
    "CommonName": "Cheal Close",
    "Indicator": "adj",
    "Longitude": null,
    "Latitude": null
  },
  {
    "StopPointRef": "1000DSSR5097",
    "CommonName": "Cheal Close",
    "Indicator": "opp",
    "Longitude": null,
    "Latitude": null
  },
  {
    "StopPointRef": "100000022072",
    "CommonName": "Clock Warehouse",
    "Indicator": "Adj",
    "Longitude": null,
    "Latitude": null
  },
  {
    "StopPointRef": "100000022071",
    "CommonName": "Clock Warehouse",
    "Indicator": "Opp",
    "Longitude": null,
    "Latitude": null
  },
  {
    "StopPointRef": "100000022066",
    "CommonName": "Dog and Duck",
    "Indicator": "Adj",
    "Longitude": null,
    "Latitude": null
  },
  {
    "StopPointRef": "1000DSLR5101",
    "CommonName": "Dog and Duck",
    "Indicator": "Opp",
    "Longitude": null,
    "Latitude": null
  },
  {
    "StopPointRef": "100052586",
    "CommonName": "Glebe Farm",
    "Indicator": "Adj",
    "Longitude": null,
    "Latitude": null
  },
  {
    "StopPointRef": "100052584",
    "CommonName": "Glebe Farm",
    "Indicator": "Opp",
    "Longitude": null,
    "Latitude": null
  },
  {
    "StopPointRef": "1000DSLR5104",
    "CommonName": "Navigation Inn",
    "Indicator": "Adj",
    "Longitude": null,
    "Latitude": null
  },
  {
    "StopPointRef": "1000DSLR5105",
    "CommonName": "Navigation Inn",
    "Indicator": "opp",
    "Longitude": null,
    "Latitude": null
  },
  {
    "StopPointRef": "1000DSSR5098",
    "CommonName": "Primary School",
    "Indicator": "adj",
    "Longitude": null,
    "Latitude": null
  },
  {
    "StopPointRef": "1000DSSR5099",
    "CommonName": "Primary School",
    "Indicator": "opp",
    "Longitude": null,
    "Latitude": null
  },
  {
    "StopPointRef": "1000DSLR5102",
    "CommonName": "Shakespeare Inn",
    "Indicator": "adj",
    "Longitude": null,
    "Latitude": null
  },
  {
    "StopPointRef": "1000DSLR1651",
    "CommonName": "Shakespeare Inn",
    "Indicator": "opp",
    "Longitude": null,
    "Latitude": null
  },
  {
    "StopPointRef": "1000DTSR5094",
    "CommonName": "Elvaston Castle Gates",
    "Indicator": "Adj",
    "Longitude": null,
    "Latitude": null
  },
  {
    "StopPointRef": "100000008664",
    "CommonName": "Elvaston Castle Gates",
    "Indicator": "Opp",
    "Longitude": null,
    "Latitude": null
  },
  {
    "StopPointRef": "1000DTSR5095",
    "CommonName": "Elvaston Lane End",
    "Indicator": "Adj",
    "Longitude": null,
    "Latitude": null
  },
  {
    "StopPointRef": "1000DTSR5096",
    "CommonName": "Elvaston Lane End",
    "Indicator": "Opp",
    "Longitude": null,
    "Latitude": null
  },
  {
    "StopPointRef": "1000DTSR5093",
    "CommonName": "Shardlow Road",
    "Indicator": null,
    "Longitude": "-1.410255",
    "Latitude": "52.886533"
  },
  {
    "StopPointRef": "1000DTSR5092",
    "CommonName": "Shardlow Road",
    "Indicator": null,
    "Longitude": "-1.409475",
    "Latitude": "52.886363"
  },
  {
    "StopPointRef": "109000009401",
    "CommonName": "Alvaston Park",
    "Indicator": null,
    "Longitude": "-1.442805",
    "Latitude": "52.903472"
  },
  {
    "StopPointRef": "109000009400",
    "CommonName": "Alvaston Park",
    "Indicator": null,
    "Longitude": "-1.443770",
    "Latitude": "52.903602"
  },
  {
    "StopPointRef": "109000009399",
    "CommonName": "Ascot Drive",
    "Indicator": null,
    "Longitude": "-1.450150",
    "Latitude": "52.905835"
  },
  {
    "StopPointRef": "109000009398",
    "CommonName": "Ascot Drive",
    "Indicator": null,
    "Longitude": "-1.449925",
    "Latitude": "52.905950"
  },
  {
    "StopPointRef": "109054482",
    "CommonName": "Conference Centre",
    "Indicator": null,
    "Longitude": "-1.447665",
    "Latitude": "52.904816"
  },
  {
    "StopPointRef": "109000009351",
    "CommonName": "Deadmans Lane",
    "Indicator": null,
    "Longitude": "-1.453536",
    "Latitude": "52.907324"
  },
  {
    "StopPointRef": "109000009352",
    "CommonName": "Deadmans Lane",
    "Indicator": null,
    "Longitude": "-1.452990",
    "Latitude": "52.906971"
  },
  {
    "StopPointRef": "3300RU0454",
    "CommonName": "Farmer Street",
    "Indicator": "adj",
    "Longitude": null,
    "Latitude": null
  },
  {
    "StopPointRef": "3300RU0453",
    "CommonName": "Farmer Street",
    "Indicator": "opp",
    "Longitude": null,
    "Latitude": null
  },
  {
    "StopPointRef": "3300RU0452",
    "CommonName": "Mill Lane",
    "Indicator": "adj",
    "Longitude": null,
    "Latitude": null
  },
  {
    "StopPointRef": "3300RU0451",
    "CommonName": "Mill Lane",
    "Indicator": "opp",
    "Longitude": null,
    "Latitude": null
  },
  {
    "StopPointRef": "3300RU0463",
    "CommonName": "Albert Road",
    "Indicator": "adj",
    "Longitude": null,
    "Latitude": null
  },
  {
    "StopPointRef": "3300RU0464",
    "CommonName": "Albert Road",
    "Indicator": "opp",
    "Longitude": null,
    "Latitude": null
  },
  {
    "StopPointRef": "3300RU0456",
    "CommonName": "Ash Lane",
    "Indicator": "adj",
    "Longitude": null,
    "Latitude": null
  },
  {
    "StopPointRef": "3300RU0754",
    "CommonName": "Ash Lane",
    "Indicator": "opp",
    "Longitude": null,
    "Latitude": null
  },
  {
    "StopPointRef": "3300RU0458",
    "CommonName": "Gotham Lane",
    "Indicator": "adj",
    "Longitude": null,
    "Latitude": null
  },
  {
    "StopPointRef": "3300RU0446",
    "CommonName": "Gotham Lane",
    "Indicator": "opp",
    "Longitude": null,
    "Latitude": null
  },
  {
    "StopPointRef": "3300RU0756",
    "CommonName": "Loughborough Road",
    "Indicator": "N-bound",
    "Longitude": null,
    "Latitude": null
  },
  {
    "StopPointRef": "3300RU0465",
    "CommonName": "Loughborough Road",
    "Indicator": "S-bound",
    "Longitude": null,
    "Latitude": null
  },
  {
    "StopPointRef": "3300RU0462",
    "CommonName": "Primary School",
    "Indicator": "adj",
    "Longitude": null,
    "Latitude": null
  },
  {
    "StopPointRef": "3300RU0461",
    "CommonName": "Primary School",
    "Indicator": "opp",
    "Longitude": null,
    "Latitude": null
  },
  {
    "StopPointRef": "3300RU0460",
    "CommonName": "Thomas Parkyn Close",
    "Indicator": "adj",
    "Longitude": null,
    "Latitude": null
  },
  {
    "StopPointRef": "3300RU0459",
    "CommonName": "Thomas Parkyn Close",
    "Indicator": "opp",
    "Longitude": null,
    "Latitude": null
  },
  {
    "StopPointRef": "3300RU0507",
    "CommonName": "Main Street",
    "Indicator": "adj",
    "Longitude": null,
    "Latitude": null
  },
  {
    "StopPointRef": "3300RU0506",
    "CommonName": "Main Street",
    "Indicator": "opp",
    "Longitude": null,
    "Latitude": null
  },
  {
    "StopPointRef": "3300RU0466",
    "CommonName": "Nottingham Road",
    "Indicator": "NE-bound",
    "Longitude": null,
    "Latitude": null
  },
  {
    "StopPointRef": "3300RU0755",
    "CommonName": "Nottingham Road",
    "Indicator": "SW-bound",
    "Longitude": null,
    "Latitude": null
  },
  {
    "StopPointRef": "260007703",
    "CommonName": "Stanford Lane",
    "Indicator": "adj",
    "Longitude": null,
    "Latitude": null
  },
  {
    "StopPointRef": "260007700",
    "CommonName": "Stanford Lane",
    "Indicator": "opp",
    "Longitude": null,
    "Latitude": null
  },
  {
    "StopPointRef": "260007102",
    "CommonName": "Packe Arms",
    "Indicator": "adj",
    "Longitude": null,
    "Latitude": null
  },
  {
    "StopPointRef": "260007101",
    "CommonName": "Vine Tree Terrace",
    "Indicator": "adj",
    "Longitude": null,
    "Latitude": null
  },
  {
    "StopPointRef": "260080151",
    "CommonName": "Vine Tree Terrace",
    "Indicator": "opp",
    "Longitude": null,
    "Latitude": null
  },
  {
    "StopPointRef": "260007456",
    "CommonName": "Baxter Gate",
    "Indicator": null,
    "Longitude": "-1.204706",
    "Latitude": "52.772379"
  },
  {
    "StopPointRef": "260007342",
    "CommonName": "Beacon Bingo",
    "Indicator": "opp",
    "Longitude": null,
    "Latitude": null
  },
  {
    "StopPointRef": "260007344",
    "CommonName": "Brush Works",
    "Indicator": "adj",
    "Longitude": null,
    "Latitude": null
  },
  {
    "StopPointRef": "260007459",
    "CommonName": "Railway Station",
    "Indicator": "Stand B",
    "Longitude": null,
    "Latitude": null
  },
  {
    "StopPointRef": "260007346",
    "CommonName": "The Greyhound",
    "Indicator": "adj",
    "Longitude": null,
    "Latitude": null
  },
  {
    "StopPointRef": "3390ME01",
    "CommonName": "Arkwright Street",
    "Indicator": "Stop ME01",
    "Longitude": null,
    "Latitude": null
  },
  {
    "StopPointRef": "3390ME03",
    "CommonName": "Eugene Gardens",
    "Indicator": "Stop ME03",
    "Longitude": null,
    "Latitude": null
  },
  {
    "StopPointRef": "3390ME08",
    "CommonName": "Eugene Gardens",
    "Indicator": "Stop ME08",
    "Longitude": null,
    "Latitude": null
  },
  {
    "StopPointRef": "3390ME02",
    "CommonName": "Lammas Gardens",
    "Indicator": "Stop ME02",
    "Longitude": null,
    "Latitude": null
  },
  {
    "StopPointRef": "3390ME09",
    "CommonName": "Lammas Gardens",
    "Indicator": "Stop ME09",
    "Longitude": null,
    "Latitude": null
  },
  {
    "StopPointRef": "3390ME04",
    "CommonName": "Ryehill Street",
    "Indicator": "Stop ME04",
    "Longitude": null,
    "Latitude": null
  },
  {
    "StopPointRef": "3390ME07",
    "CommonName": "Ryehill Street",
    "Indicator": "Stop ME07",
    "Longitude": null,
    "Latitude": null
  },
  {
    "StopPointRef": "3390S3",
    "CommonName": "Nottingham Railway Station",
    "Indicator": "Stop S3",
    "Longitude": null,
    "Latitude": null
  },
  {
    "StopPointRef": "3390S6",
    "CommonName": "Nottingham Railway Station",
    "Indicator": "Stop S6",
    "Longitude": null,
    "Latitude": null
  },
  {
    "StopPointRef": "3390BB04",
    "CommonName": "Broad Marsh Bus Station",
    "Indicator": "Bay 4",
    "Longitude": null,
    "Latitude": null
  },
  {
    "StopPointRef": "3300RU0232",
    "CommonName": "Ashby Road",
    "Indicator": "adj",
    "Longitude": null,
    "Latitude": null
  },
  {
    "StopPointRef": "3300RU0597",
    "CommonName": "Ashby Road",
    "Indicator": "opp",
    "Longitude": null,
    "Latitude": null
  },
  {
    "StopPointRef": "3300RU0499",
    "CommonName": "Loughborough Road",
    "Indicator": "N-bound",
    "Longitude": null,
    "Latitude": null
  },
  {
    "StopPointRef": "3300RU0478",
    "CommonName": "Loughborough Road",
    "Indicator": "S-bound",
    "Longitude": null,
    "Latitude": null
  },
  {
    "StopPointRef": "3300RU0695",
    "CommonName": "Scout Hut",
    "Indicator": "adj",
    "Longitude": null,
    "Latitude": null
  },
  {
    "StopPointRef": "3300RU0166",
    "CommonName": "Scout Hut",
    "Indicator": "opp",
    "Longitude": null,
    "Latitude": null
  },
  {
    "StopPointRef": "3300RU0151",
    "CommonName": "Ashworth Avenue",
    "Indicator": "adj",
    "Longitude": null,
    "Latitude": null
  },
  {
    "StopPointRef": "3300RU0152",
    "CommonName": "Ashworth Avenue",
    "Indicator": "opp",
    "Longitude": null,
    "Latitude": null
  },
  {
    "StopPointRef": "3300RU0153",
    "CommonName": "Flawforth Lane",
    "Indicator": "adj",
    "Longitude": null,
    "Latitude": null
  },
  {
    "StopPointRef": "3300RU0154",
    "CommonName": "Flawforth Lane",
    "Indicator": "opp",
    "Longitude": null,
    "Latitude": null
  },
  {
    "StopPointRef": "3300RU0174",
    "CommonName": "Landmere Lane",
    "Indicator": "adj",
    "Longitude": null,
    "Latitude": null
  },
  {
    "StopPointRef": "3300RU0176",
    "CommonName": "Landmere Lane",
    "Indicator": "opp",
    "Longitude": null,
    "Latitude": null
  },
  {
    "StopPointRef": "3300RU0002",
    "CommonName": "County Hall",
    "Indicator": "o/s",
    "Longitude": null,
    "Latitude": null
  },
  {
    "StopPointRef": "3300RU0003",
    "CommonName": "County Hall",
    "Indicator": "Stop B",
    "Longitude": null,
    "Latitude": null
  },
  {
    "StopPointRef": "3390ME05",
    "CommonName": "Victoria Embankment",
    "Indicator": "Stop ME05",
    "Longitude": null,
    "Latitude": null
  },
  {
    "StopPointRef": "3390ME06",
    "CommonName": "Victoria Embankment",
    "Indicator": "Stop ME06",
    "Longitude": null,
    "Latitude": null
  },
  {
    "StopPointRef": "3300RU0071",
    "CommonName": "ASDA",
    "Indicator": "o/s",
    "Longitude": null,
    "Latitude": null
  },
  {
    "StopPointRef": "3300RU0230",
    "CommonName": "ASDA",
    "Indicator": "opp",
    "Longitude": null,
    "Latitude": null
  },
  {
    "StopPointRef": "3300RU0005",
    "CommonName": "Balmoral Avenue",
    "Indicator": "adj",
    "Longitude": null,
    "Latitude": null
  },
  {
    "StopPointRef": "3300RU0114",
    "CommonName": "Chaworth Road",
    "Indicator": "adj",
    "Longitude": null,
    "Latitude": null
  },
  {
    "StopPointRef": "3300RU0073",
    "CommonName": "Chaworth Road",
    "Indicator": "opp",
    "Longitude": null,
    "Latitude": null
  },
  {
    "StopPointRef": "3300RU0112",
    "CommonName": "Chestnut Grove",
    "Indicator": "adj",
    "Longitude": null,
    "Latitude": null
  },
  {
    "StopPointRef": "3300RU0113",
    "CommonName": "Chestnut Grove",
    "Indicator": "opp",
    "Longitude": null,
    "Latitude": null
  },
  {
    "StopPointRef": "3300RU0144",
    "CommonName": "Fire Station",
    "Indicator": "adj",
    "Longitude": null,
    "Latitude": null
  },
  {
    "StopPointRef": "3300RU0145",
    "CommonName": "Fire Station",
    "Indicator": "opp",
    "Longitude": null,
    "Latitude": null
  },
  {
    "StopPointRef": "3300RU0111",
    "CommonName": "Victoria Road",
    "Indicator": "adj",
    "Longitude": null,
    "Latitude": null
  },
  {
    "StopPointRef": "3300RU0110",
    "CommonName": "Victoria Road",
    "Indicator": "opp",
    "Longitude": null,
    "Latitude": null
  },
  {
    "StopPointRef": "3300RU0485",
    "CommonName": "Cemetery",
    "Indicator": "o/s",
    "Longitude": null,
    "Latitude": null
  },
  {
    "StopPointRef": "3300RU0484",
    "CommonName": "Cemetery",
    "Indicator": "opp",
    "Longitude": null,
    "Latitude": null
  },
  {
    "StopPointRef": "3300RU0817",
    "CommonName": "Greythorn Drive",
    "Indicator": "adj",
    "Longitude": null,
    "Latitude": null
  },
  {
    "StopPointRef": "3300RU0818",
    "CommonName": "Greythorn Drive",
    "Indicator": "opp",
    "Longitude": null,
    "Latitude": null
  },
  {
    "StopPointRef": "3300RU0482",
    "CommonName": "Oakham Road",
    "Indicator": "adj",
    "Longitude": null,
    "Latitude": null
  },
  {
    "StopPointRef": "3300RU0483",
    "CommonName": "Oakham Road",
    "Indicator": "opp",
    "Longitude": null,
    "Latitude": null
  },
  {
    "StopPointRef": "3300RU0486",
    "CommonName": "Stanhome Drive",
    "Indicator": "adj",
    "Longitude": null,
    "Latitude": null
  },
  {
    "StopPointRef": "3300RU0572",
    "CommonName": "Stanhome Drive",
    "Indicator": "opp",
    "Longitude": null,
    "Latitude": null
  },
  {
    "StopPointRef": "269057005",
    "CommonName": "Haymarket Bus Station",
    "Indicator": null,
    "Longitude": "-1.130000",
    "Latitude": "52.638200"
  },
  {
    "StopPointRef": "269057035",
    "CommonName": "Humberstone Gate",
    "Indicator": null,
    "Longitude": "-1.128478",
    "Latitude": "52.636779"
  },
  {
    "StopPointRef": "269057012",
    "CommonName": "Charles Street",
    "Indicator": null,
    "Longitude": "-1.130507",
    "Latitude": "52.636745"
  },
  {
    "StopPointRef": "269057039",
    "CommonName": "Humberstone Gate",
    "Indicator": null,
    "Longitude": "-1.128500",
    "Latitude": "52.636420"
  },
  {
    "StopPointRef": "269045051",
    "CommonName": "Ann Street",
    "Indicator": null,
    "Longitude": "-1.124569",
    "Latitude": "52.637200"
  },
  {
    "StopPointRef": "269045052",
    "CommonName": "Ann Street",
    "Indicator": null,
    "Longitude": "-1.124541",
    "Latitude": "52.637128"
  },
  {
    "StopPointRef": "269057067",
    "CommonName": "Madras Road",
    "Indicator": null,
    "Longitude": "-1.121370",
    "Latitude": "52.638291"
  },
  {
    "StopPointRef": "269057065",
    "CommonName": "Brunswick Street",
    "Indicator": null,
    "Longitude": "-1.121316",
    "Latitude": "52.638012"
  },
  {
    "StopPointRef": "269057069",
    "CommonName": "Dysart Way",
    "Indicator": null,
    "Longitude": "-1.119575",
    "Latitude": "52.639366"
  },
  {
    "StopPointRef": "269035000",
    "CommonName": "Farringdon Street",
    "Indicator": null,
    "Longitude": "-1.110743",
    "Latitude": "52.641268"
  },
  {
    "StopPointRef": "269057064",
    "CommonName": "Dysart Way",
    "Indicator": null,
    "Longitude": "-1.118612",
    "Latitude": "52.639457"
  },
  {
    "StopPointRef": "269035001",
    "CommonName": "Spinney Hill Road",
    "Indicator": null,
    "Longitude": "-1.107566",
    "Latitude": "52.641982"
  },
  {
    "StopPointRef": "269053001",
    "CommonName": "Overton Road",
    "Indicator": null,
    "Longitude": "-1.103067",
    "Latitude": "52.642289"
  },
  {
    "StopPointRef": "269035005",
    "CommonName": "Farringdon Street",
    "Indicator": null,
    "Longitude": "-1.111904",
    "Latitude": "52.640873"
  },
  {
    "StopPointRef": "269035004",
    "CommonName": "Spinney Hill Road",
    "Indicator": null,
    "Longitude": "-1.109246",
    "Latitude": "52.641518"
  },
  {
    "StopPointRef": "269053002",
    "CommonName": "Sulgrave Road",
    "Indicator": null,
    "Longitude": "-1.100662",
    "Latitude": "52.642100"
  },
  {
    "StopPointRef": "269053003",
    "CommonName": "Kitchener Road",
    "Indicator": null,
    "Longitude": "-1.097512",
    "Latitude": "52.642184"
  },
  {
    "StopPointRef": "269035003",
    "CommonName": "Overton Road",
    "Indicator": null,
    "Longitude": "-1.103674",
    "Latitude": "52.642295"
  },
  {
    "StopPointRef": "269035002",
    "CommonName": "St Barnabas Road",
    "Indicator": null,
    "Longitude": "-1.098727",
    "Latitude": "52.642041"
  },
  {
    "StopPointRef": "269053004",
    "CommonName": "Exton Road",
    "Indicator": null,
    "Longitude": "-1.093358",
    "Latitude": "52.642260"
  },
  {
    "StopPointRef": "269053005",
    "CommonName": "King Edward Road",
    "Indicator": null,
    "Longitude": "-1.090669",
    "Latitude": "52.642195"
  },
  {
    "StopPointRef": "269036005",
    "CommonName": "Kitchener Road",
    "Indicator": null,
    "Longitude": "-1.096036",
    "Latitude": "52.642119"
  },
  {
    "StopPointRef": "269036004",
    "CommonName": "Exton Road",
    "Indicator": null,
    "Longitude": "-1.092400",
    "Latitude": "52.642127"
  },
  {
    "StopPointRef": "269053006",
    "CommonName": "Turner Road",
    "Indicator": null,
    "Longitude": "-1.087376",
    "Latitude": "52.642107"
  },
  {
    "StopPointRef": "269041000",
    "CommonName": "Humberstone Park",
    "Indicator": null,
    "Longitude": "-1.085396",
    "Latitude": "52.642091"
  },
  {
    "StopPointRef": "269036003",
    "CommonName": "King Edward Road",
    "Indicator": null,
    "Longitude": "-1.089253",
    "Latitude": "52.642076"
  },
  {
    "StopPointRef": "269036002",
    "CommonName": "Humberstone Park",
    "Indicator": null,
    "Longitude": "-1.085605",
    "Latitude": "52.641985"
  },
  {
    "StopPointRef": "269052006",
    "CommonName": "Rockery Close",
    "Indicator": null,
    "Longitude": "-1.079347",
    "Latitude": "52.639473"
  },
  {
    "StopPointRef": "269052007",
    "CommonName": "Peters Drive",
    "Indicator": null,
    "Longitude": "-1.076515",
    "Latitude": "52.638489"
  },
  {
    "StopPointRef": "269052012",
    "CommonName": "Havencrest Drive",
    "Indicator": null,
    "Longitude": "-1.073245",
    "Latitude": "52.637996"
  },
  {
    "StopPointRef": "269052013",
    "CommonName": "Elmcroft Avenue",
    "Indicator": null,
    "Longitude": "-1.072585",
    "Latitude": "52.639870"
  },
  {
    "StopPointRef": "269052040",
    "CommonName": "Colchester Road",
    "Indicator": null,
    "Longitude": "-1.071831",
    "Latitude": "52.640575"
  },
  {
    "StopPointRef": "269036001",
    "CommonName": "Rockery Close",
    "Indicator": null,
    "Longitude": "-1.080680",
    "Latitude": "52.640023"
  },
  {
    "StopPointRef": "269052038",
    "CommonName": "Ocean Close",
    "Indicator": null,
    "Longitude": "-1.068812",
    "Latitude": "52.640056"
  },
  {
    "StopPointRef": "269052033",
    "CommonName": "Dudley Close",
    "Indicator": null,
    "Longitude": "-1.068133",
    "Latitude": "52.638649"
  },
  {
    "StopPointRef": "269036000",
    "CommonName": "Peters Drive",
    "Indicator": null,
    "Longitude": "-1.077106",
    "Latitude": "52.638512"
  },
  {
    "StopPointRef": "269052034",
    "CommonName": "Somers Road",
    "Indicator": null,
    "Longitude": "-1.065797",
    "Latitude": "52.638001"
  },
  {
    "StopPointRef": "269052017",
    "CommonName": "Havencrest Drive",
    "Indicator": null,
    "Longitude": "-1.072722",
    "Latitude": "52.638280"
  },
  {
    "StopPointRef": "269052016",
    "CommonName": "Elmcroft Avenue",
    "Indicator": null,
    "Longitude": "-1.072180",
    "Latitude": "52.640146"
  },
  {
    "StopPointRef": "269052035",
    "CommonName": "Herthull Road",
    "Indicator": null,
    "Longitude": "-1.062636",
    "Latitude": "52.637230"
  },
  {
    "StopPointRef": "269052036",
    "CommonName": "Dakyn Road",
    "Indicator": null,
    "Longitude": "-1.059748",
    "Latitude": "52.636838"
  },
  {
    "StopPointRef": "269052039",
    "CommonName": "Ocean Road",
    "Indicator": null,
    "Longitude": "-1.069559",
    "Latitude": "52.640395"
  },
  {
    "StopPointRef": "269052037",
    "CommonName": "Ocean Close",
    "Indicator": null,
    "Longitude": "-1.069072",
    "Latitude": "52.638989"
  },
  {
    "StopPointRef": "269052048",
    "CommonName": "The Manor",
    "Indicator": null,
    "Longitude": "-1.058482",
    "Latitude": "52.638671"
  },
  {
    "StopPointRef": "269052032",
    "CommonName": "Dudley Close",
    "Indicator": null,
    "Longitude": "-1.066695",
    "Latitude": "52.638143"
  },
  {
    "StopPointRef": "269052049",
    "CommonName": "Briar Road",
    "Indicator": null,
    "Longitude": "-1.056976",
    "Latitude": "52.640700"
  },
  {
    "StopPointRef": "269052050",
    "CommonName": "Chater Close",
    "Indicator": null,
    "Longitude": "-1.056416",
    "Latitude": "52.642017"
  },
  {
    "StopPointRef": "269052031",
    "CommonName": "Herthull Road",
    "Indicator": null,
    "Longitude": "-1.063579",
    "Latitude": "52.637399"
  },
  {
    "StopPointRef": "269052030",
    "CommonName": "Dakyn Road",
    "Indicator": null,
    "Longitude": "-1.061002",
    "Latitude": "52.636938"
  },
  {
    "StopPointRef": "269041006",
    "CommonName": "Nursery Road",
    "Indicator": null,
    "Longitude": "-1.056218",
    "Latitude": "52.643661"
  },
  {
    "StopPointRef": "269052044",
    "CommonName": "Scraptoft Lane",
    "Indicator": null,
    "Longitude": "-1.051587",
    "Latitude": "52.643183"
  },
  {
    "StopPointRef": "269052021",
    "CommonName": "Dakyn Road",
    "Indicator": null,
    "Longitude": "-1.057892",
    "Latitude": "52.637947"
  },
  {
    "StopPointRef": "269052047",
    "CommonName": "Croyland Green",
    "Indicator": null,
    "Longitude": "-1.053742",
    "Latitude": "52.637860"
  },
  {
    "StopPointRef": "269052045",
    "CommonName": "Gretna Way",
    "Indicator": null,
    "Longitude": "-1.051987",
    "Latitude": "52.641802"
  },
  {
    "StopPointRef": "269052046",
    "CommonName": "Cross Keys Green",
    "Indicator": null,
    "Longitude": "-1.052779",
    "Latitude": "52.640019"
  },
  {
    "StopPointRef": "269030078",
    "CommonName": "St Margaret's Bus Station",
    "Indicator": null,
    "Longitude": "-1.133746",
    "Latitude": "52.639757"
  },
  {
    "StopPointRef": "269030128",
    "CommonName": "Gravel Street",
    "Indicator": null,
    "Longitude": "-1.135086",
    "Latitude": "52.638904"
  },
  {
    "StopPointRef": "269030126",
    "CommonName": "St Margaret's Bus Station",
    "Indicator": null,
    "Longitude": "-1.133746",
    "Latitude": "52.639757"
  },
  {
    "StopPointRef": "269030001",
    "CommonName": "Sandacre Street",
    "Indicator": null,
    "Longitude": "-1.133899",
    "Latitude": "52.639174"
  },
  {
    "StopPointRef": "269030023",
    "CommonName": "Pasture Lane",
    "Indicator": null,
    "Longitude": "-1.137842",
    "Latitude": "52.640021"
  },
  {
    "StopPointRef": "269030024",
    "CommonName": "The New Joiners",
    "Indicator": null,
    "Longitude": "-1.139772",
    "Latitude": "52.639613"
  },
  {
    "StopPointRef": "269030011",
    "CommonName": "Gravel Street",
    "Indicator": null,
    "Longitude": "-1.134594",
    "Latitude": "52.639117"
  },
  {
    "StopPointRef": "269030062",
    "CommonName": "Soar Lane",
    "Indicator": null,
    "Longitude": "-1.141966",
    "Latitude": "52.639942"
  },
  {
    "StopPointRef": "269030022",
    "CommonName": "Pasture Lane",
    "Indicator": null,
    "Longitude": "-1.138181",
    "Latitude": "52.640087"
  },
  {
    "StopPointRef": "269030018",
    "CommonName": "Slater Street",
    "Indicator": null,
    "Longitude": "-1.143135",
    "Latitude": "52.641408"
  },
  {
    "StopPointRef": "269050014",
    "CommonName": "Dunton Street",
    "Indicator": null,
    "Longitude": "-1.146239",
    "Latitude": "52.643696"
  },
  {
    "StopPointRef": "269030063",
    "CommonName": "Soar Lane",
    "Indicator": null,
    "Longitude": "-1.141501",
    "Latitude": "52.639561"
  },
  {
    "StopPointRef": "269030019",
    "CommonName": "Slater Street",
    "Indicator": null,
    "Longitude": "-1.143088",
    "Latitude": "52.641588"
  },
  {
    "StopPointRef": "269050019",
    "CommonName": "Abbey Gate",
    "Indicator": null,
    "Longitude": "-1.144544",
    "Latitude": "52.643459"
  },
  {
    "StopPointRef": "269050015",
    "CommonName": "Fosse Road Corner",
    "Indicator": null,
    "Longitude": "-1.150489",
    "Latitude": "52.643996"
  },
  {
    "StopPointRef": "269056032",
    "CommonName": "Garland Crescent",
    "Indicator": null,
    "Longitude": "-1.158341",
    "Latitude": "52.646093"
  },
  {
    "StopPointRef": "269050018",
    "CommonName": "Dunton Street",
    "Indicator": null,
    "Longitude": "-1.147534",
    "Latitude": "52.643957"
  },
  {
    "StopPointRef": "269050017",
    "CommonName": "Co-op",
    "Indicator": null,
    "Longitude": "-1.150442",
    "Latitude": "52.644167"
  },
  {
    "StopPointRef": "269056033",
    "CommonName": "Mary Road",
    "Indicator": null,
    "Longitude": "-1.160468",
    "Latitude": "52.647726"
  },
  {
    "StopPointRef": "269056034",
    "CommonName": "Darlington Road",
    "Indicator": null,
    "Longitude": "-1.165553",
    "Latitude": "52.649255"
  },
  {
    "StopPointRef": "269056035",
    "CommonName": "Heathley Park Drive",
    "Indicator": null,
    "Longitude": "-1.168612",
    "Latitude": "52.650085"
  },
  {
    "StopPointRef": "269051006",
    "CommonName": "Medina Road",
    "Indicator": null,
    "Longitude": "-1.152054",
    "Latitude": "52.644334"
  },
  {
    "StopPointRef": "269044000",
    "CommonName": "Gilroes Cemetery",
    "Indicator": null,
    "Longitude": "-1.172626",
    "Latitude": "52.651192"
  },
  {
    "StopPointRef": "269050016",
    "CommonName": "Garland Crescent",
    "Indicator": null,
    "Longitude": "-1.156468",
    "Latitude": "52.645145"
  },
  {
    "StopPointRef": "269032100",
    "CommonName": "Mary Road",
    "Indicator": null,
    "Longitude": "-1.159261",
    "Latitude": "52.647475"
  },
  {
    "StopPointRef": "269032099",
    "CommonName": "Darlington Road",
    "Indicator": null,
    "Longitude": "-1.163593",
    "Latitude": "52.648971"
  },
  {
    "StopPointRef": "269032098",
    "CommonName": "Heathley Park Drive",
    "Indicator": null,
    "Longitude": "-1.166814",
    "Latitude": "52.649803"
  },
  {
    "StopPointRef": "269032097",
    "CommonName": "Gilroes Cemetery",
    "Indicator": null,
    "Longitude": "-1.171431",
    "Latitude": "52.651085"
  },
  {
    "StopPointRef": "269044001",
    "CommonName": "Glenfield Hospital",
    "Indicator": null,
    "Longitude": "-1.178814",
    "Latitude": "52.652305"
  },
  {
    "StopPointRef": "269032096",
    "CommonName": "Glenfield Hospital",
    "Indicator": null,
    "Longitude": "-1.180934",
    "Latitude": "52.652751"
  },
  {
    "StopPointRef": "260003906",
    "CommonName": "Glenfield Frith Drive",
    "Indicator": null,
    "Longitude": "-1.184122",
    "Latitude": "52.653061"
  },
  {
    "StopPointRef": "260003907",
    "CommonName": "County Hall",
    "Indicator": null,
    "Longitude": "-1.191010",
    "Latitude": "52.655472"
  },
  {
    "StopPointRef": "260003905",
    "CommonName": "County Hall",
    "Indicator": null,
    "Longitude": "-1.189257",
    "Latitude": "52.655155"
  },
  {
    "StopPointRef": "260003908",
    "CommonName": "Gynsill Lane",
    "Indicator": null,
    "Longitude": "-1.193915",
    "Latitude": "52.656688"
  },
  {
    "StopPointRef": "260003904",
    "CommonName": "Gynsill Lane",
    "Indicator": null,
    "Longitude": "-1.193276",
    "Latitude": "52.656863"
  },
  {
    "StopPointRef": "260003900",
    "CommonName": "Overdale Avenue",
    "Indicator": null,
    "Longitude": "-1.205020",
    "Latitude": "52.659801"
  },
  {
    "StopPointRef": "260003901",
    "CommonName": "Overdale Avenue",
    "Indicator": null,
    "Longitude": "-1.204182",
    "Latitude": "52.659526"
  },
  {
    "StopPointRef": "260010710",
    "CommonName": "Sacheverell Way",
    "Indicator": null,
    "Longitude": "-1.212554",
    "Latitude": "52.659321"
  },
  {
    "StopPointRef": "260010727",
    "CommonName": "Budgens",
    "Indicator": null,
    "Longitude": "-1.224988",
    "Latitude": "52.655169"
  },
  {
    "StopPointRef": "260010731",
    "CommonName": "Garendon Way",
    "Indicator": null,
    "Longitude": "-1.228256",
    "Latitude": "52.654228"
  },
  {
    "StopPointRef": "260010717",
    "CommonName": "Stamford Drive",
    "Indicator": null,
    "Longitude": "-1.221358",
    "Latitude": "52.654749"
  },
  {
    "StopPointRef": "260010716",
    "CommonName": "Budgens",
    "Indicator": null,
    "Longitude": "-1.224482",
    "Latitude": "52.655327"
  },
  {
    "StopPointRef": "260010715",
    "CommonName": "Garendon Way",
    "Indicator": null,
    "Longitude": "-1.229330",
    "Latitude": "52.653714"
  },
  {
    "StopPointRef": "260011602",
    "CommonName": "M1 Bridge",
    "Indicator": null,
    "Longitude": "-1.239754",
    "Latitude": "52.651875"
  },
  {
    "StopPointRef": "260011600",
    "CommonName": "M1 Bridge",
    "Indicator": null,
    "Longitude": "-1.239816",
    "Latitude": "52.651705"
  },
  {
    "StopPointRef": "260011601",
    "CommonName": "Dane Hill",
    "Indicator": null,
    "Longitude": "-1.241604",
    "Latitude": "52.650898"
  },
  {
    "StopPointRef": "260011619",
    "CommonName": "Whittington Drive",
    "Indicator": null,
    "Longitude": "-1.242978",
    "Latitude": "52.650943"
  },
  {
    "StopPointRef": "260011618",
    "CommonName": "Charnwood",
    "Indicator": null,
    "Longitude": "-1.245219",
    "Latitude": "52.653007"
  },
  {
    "StopPointRef": "260011629",
    "CommonName": "Main Street",
    "Indicator": null,
    "Longitude": "-1.241641",
    "Latitude": "52.650431"
  },
  {
    "StopPointRef": "260011622",
    "CommonName": "Fielding Lane",
    "Indicator": null,
    "Longitude": "-1.238356",
    "Latitude": "52.648090"
  },
  {
    "StopPointRef": "260011621",
    "CommonName": "Markfield Road",
    "Indicator": null,
    "Longitude": "-1.248299",
    "Latitude": "52.654384"
  },
  {
    "StopPointRef": "260011626",
    "CommonName": "Bevington Close",
    "Indicator": null,
    "Longitude": "-1.247729",
    "Latitude": "52.653140"
  },
  {
    "StopPointRef": "260011623",
    "CommonName": "Meadow Close",
    "Indicator": null,
    "Longitude": "-1.237474",
    "Latitude": "52.646961"
  },
  {
    "StopPointRef": "260011624",
    "CommonName": "Heathbrook Drive",
    "Indicator": null,
    "Longitude": "-1.234821",
    "Latitude": "52.645712"
  },
  {
    "StopPointRef": "260011627",
    "CommonName": "Wolsey Drive",
    "Indicator": null,
    "Longitude": "-1.247982",
    "Latitude": "52.652188"
  },
  {
    "StopPointRef": "260011628",
    "CommonName": "Saxons Rise",
    "Indicator": null,
    "Longitude": "-1.243724",
    "Latitude": "52.651406"
  },
  {
    "StopPointRef": "260011625",
    "CommonName": "Tyler Road",
    "Indicator": null,
    "Longitude": "-1.232836",
    "Latitude": "52.644261"
  },
  {
    "StopPointRef": "260011610",
    "CommonName": "Mill Drive",
    "Indicator": null,
    "Longitude": "-1.237761",
    "Latitude": "52.644050"
  },
  {
    "StopPointRef": "260011616",
    "CommonName": "Whittington Drive",
    "Indicator": null,
    "Longitude": "-1.243211",
    "Latitude": "52.651142"
  },
  {
    "StopPointRef": "260011615",
    "CommonName": "Stamford Street",
    "Indicator": null,
    "Longitude": "-1.244088",
    "Latitude": "52.649988"
  },
  {
    "StopPointRef": "260011611",
    "CommonName": "Park Road",
    "Indicator": null,
    "Longitude": "-1.240512",
    "Latitude": "52.644796"
  },
  {
    "StopPointRef": "260011612",
    "CommonName": "Chapel Street",
    "Indicator": null,
    "Longitude": "-1.243693",
    "Latitude": "52.646345"
  },
  {
    "StopPointRef": "260011605",
    "CommonName": "Bulls Head",
    "Indicator": null,
    "Longitude": "-1.245509",
    "Latitude": "52.648145"
  },
  {
    "StopPointRef": "269057089",
    "CommonName": "Haymarket Bus Station",
    "Indicator": null,
    "Longitude": "-1.130000",
    "Latitude": "52.638200"
  },
  {
    "StopPointRef": "269030009",
    "CommonName": "Orchard Street",
    "Indicator": null,
    "Longitude": "-1.130175",
    "Latitude": "52.640622"
  },
  {
    "StopPointRef": "269057000",
    "CommonName": "Orchard Street",
    "Indicator": null,
    "Longitude": "-1.130582",
    "Latitude": "52.639501"
  },
  {
    "StopPointRef": "269030013",
    "CommonName": "George Street",
    "Indicator": null,
    "Longitude": "-1.129128",
    "Latitude": "52.641989"
  },
  {
    "StopPointRef": "269057072",
    "CommonName": "George Street",
    "Indicator": null,
    "Longitude": "-1.128745",
    "Latitude": "52.641960"
  },
  {
    "StopPointRef": "269030014",
    "CommonName": "Leicester College",
    "Indicator": null,
    "Longitude": "-1.127420",
    "Latitude": "52.643901"
  },
  {
    "StopPointRef": "269030015",
    "CommonName": "Abbey Park Street",
    "Indicator": null,
    "Longitude": "-1.125860",
    "Latitude": "52.645813"
  },
  {
    "StopPointRef": "269057071",
    "CommonName": "Leicester College",
    "Indicator": null,
    "Longitude": "-1.126739",
    "Latitude": "52.643976"
  },
  {
    "StopPointRef": "269030016",
    "CommonName": "Donaldson Road",
    "Indicator": null,
    "Longitude": "-1.124660",
    "Latitude": "52.647431"
  },
  {
    "StopPointRef": "269030017",
    "CommonName": "Law Street",
    "Indicator": null,
    "Longitude": "-1.122509",
    "Latitude": "52.650040"
  },
  {
    "StopPointRef": "269033022",
    "CommonName": "Doncaster Road",
    "Indicator": null,
    "Longitude": "-1.120980",
    "Latitude": "52.651845"
  },
  {
    "StopPointRef": "269042015",
    "CommonName": "Dysart Way",
    "Indicator": null,
    "Longitude": "-1.124672",
    "Latitude": "52.646811"
  },
  {
    "StopPointRef": "269042013",
    "CommonName": "Brandon Street",
    "Indicator": null,
    "Longitude": "-1.123413",
    "Latitude": "52.648465"
  },
  {
    "StopPointRef": "269033023",
    "CommonName": "Lexham Street",
    "Indicator": null,
    "Longitude": "-1.119505",
    "Latitude": "52.653866"
  },
  {
    "StopPointRef": "269042012",
    "CommonName": "Doncaster Road",
    "Indicator": null,
    "Longitude": "-1.121124",
    "Latitude": "52.651307"
  },
  {
    "StopPointRef": "269033030",
    "CommonName": "Lexham Street",
    "Indicator": null,
    "Longitude": "-1.119557",
    "Latitude": "52.653498"
  },
  {
    "StopPointRef": "269033024",
    "CommonName": "Arbour Road",
    "Indicator": null,
    "Longitude": "-1.118138",
    "Latitude": "52.655708"
  },
  {
    "StopPointRef": "269033025",
    "CommonName": "Moores Road",
    "Indicator": null,
    "Longitude": "-1.117426",
    "Latitude": "52.656547"
  },
  {
    "StopPointRef": "269033029",
    "CommonName": "Arbour Road",
    "Indicator": null,
    "Longitude": "-1.118537",
    "Latitude": "52.654982"
  },
  {
    "StopPointRef": "269033028",
    "CommonName": "Moores Road",
    "Indicator": null,
    "Longitude": "-1.117598",
    "Latitude": "52.656108"
  },
  {
    "StopPointRef": "269047003",
    "CommonName": "Lancashire Street",
    "Indicator": null,
    "Longitude": "-1.115596",
    "Latitude": "52.658583"
  },
  {
    "StopPointRef": "269047004",
    "CommonName": "Belgrave Police Station",
    "Indicator": null,
    "Longitude": "-1.114368",
    "Latitude": "52.660121"
  },
  {
    "StopPointRef": "269033027",
    "CommonName": "Lancashire Street",
    "Indicator": null,
    "Longitude": "-1.115737",
    "Latitude": "52.658189"
  },
  {
    "StopPointRef": "269033026",
    "CommonName": "Belgrave Police Station",
    "Indicator": null,
    "Longitude": "-1.114010",
    "Latitude": "52.660262"
  },
  {
    "StopPointRef": "269047005",
    "CommonName": "Rushey Mead School",
    "Indicator": null,
    "Longitude": "-1.112968",
    "Latitude": "52.662052"
  },
  {
    "StopPointRef": "269047006",
    "CommonName": "Uxbridge Road",
    "Indicator": null,
    "Longitude": "-1.111363",
    "Latitude": "52.663919"
  },
  {
    "StopPointRef": "269047007",
    "CommonName": "Oakland Avenue",
    "Indicator": null,
    "Longitude": "-1.110017",
    "Latitude": "52.665410"
  },
  {
    "StopPointRef": "269047008",
    "CommonName": "Sainsbury's",
    "Indicator": null,
    "Longitude": "-1.107551",
    "Latitude": "52.668133"
  },
  {
    "StopPointRef": "269047013",
    "CommonName": "Uxbridge Road",
    "Indicator": null,
    "Longitude": "-1.110872",
    "Latitude": "52.664077"
  },
  {
    "StopPointRef": "269047012",
    "CommonName": "Oakland Avenue",
    "Indicator": null,
    "Longitude": "-1.109738",
    "Latitude": "52.665327"
  },
  {
    "StopPointRef": "269047009",
    "CommonName": "Alderton Close",
    "Indicator": null,
    "Longitude": "-1.105645",
    "Latitude": "52.670969"
  },
  {
    "StopPointRef": "269047011",
    "CommonName": "Sainsbury's",
    "Indicator": null,
    "Longitude": "-1.107231",
    "Latitude": "52.667888"
  },
  {
    "StopPointRef": "269047010",
    "CommonName": "Alderton Close",
    "Indicator": null,
    "Longitude": "-1.105733",
    "Latitude": "52.670259"
  },
  {
    "StopPointRef": "260009101",
    "CommonName": "Manor Medical Centre",
    "Indicator": null,
    "Longitude": "-1.103756",
    "Latitude": "52.672950"
  },
  {
    "StopPointRef": "260009100",
    "CommonName": "Manor Medical Centre",
    "Indicator": null,
    "Longitude": "-1.104501",
    "Latitude": "52.672650"
  },
  {
    "StopPointRef": "260009102",
    "CommonName": "Dorothy Avenue",
    "Indicator": null,
    "Longitude": "-1.102627",
    "Latitude": "52.674605"
  },
  {
    "StopPointRef": "260009112",
    "CommonName": "Dorothy Avenue",
    "Indicator": null,
    "Longitude": "-1.102129",
    "Latitude": "52.675105"
  },
  {
    "StopPointRef": "260009103",
    "CommonName": "Bridge Park Road",
    "Indicator": null,
    "Longitude": "-1.101681",
    "Latitude": "52.676054"
  },
  {
    "StopPointRef": "260009104",
    "CommonName": "Lea Close",
    "Indicator": null,
    "Longitude": "-1.100059",
    "Latitude": "52.677984"
  },
  {
    "StopPointRef": "260009105",
    "CommonName": "Forest Avenue",
    "Indicator": null,
    "Longitude": "-1.098105",
    "Latitude": "52.680198"
  },
  {
    "StopPointRef": "260009106",
    "CommonName": "Canal Street",
    "Indicator": null,
    "Longitude": "-1.096933",
    "Latitude": "52.681781"
  },
  {
    "StopPointRef": "260009107",
    "CommonName": "Costco",
    "Indicator": null,
    "Longitude": "-1.095518",
    "Latitude": "52.683676"
  },
  {
    "StopPointRef": "260009111",
    "CommonName": "Lea Close",
    "Indicator": null,
    "Longitude": "-1.100125",
    "Latitude": "52.677616"
  },
  {
    "StopPointRef": "260009110",
    "CommonName": "Forest Avenue",
    "Indicator": null,
    "Longitude": "-1.098216",
    "Latitude": "52.679840"
  },
  {
    "StopPointRef": "260009142",
    "CommonName": "Roundhill College",
    "Indicator": null,
    "Longitude": "-1.092779",
    "Latitude": "52.687386"
  },
  {
    "StopPointRef": "260009109",
    "CommonName": "Canal Street",
    "Indicator": null,
    "Longitude": "-1.096939",
    "Latitude": "52.681511"
  },
  {
    "StopPointRef": "260009108",
    "CommonName": "Costco",
    "Indicator": null,
    "Longitude": "-1.095053",
    "Latitude": "52.683987"
  },
  {
    "StopPointRef": "260009141",
    "CommonName": "Roundhill College",
    "Indicator": null,
    "Longitude": "-1.092831",
    "Latitude": "52.687000"
  },
  {
    "StopPointRef": "260008801",
    "CommonName": "Barkby Lane",
    "Indicator": null,
    "Longitude": "-1.087515",
    "Latitude": "52.690797"
  },
  {
    "StopPointRef": "260008813",
    "CommonName": "Barkby Lane",
    "Indicator": null,
    "Longitude": "-1.087713",
    "Latitude": "52.690529"
  },
  {
    "StopPointRef": "260008812",
    "CommonName": "Wanlip Road",
    "Indicator": null,
    "Longitude": "-1.083468",
    "Latitude": "52.692582"
  },
  {
    "StopPointRef": "260008838",
    "CommonName": "Wanlip Road",
    "Indicator": null,
    "Longitude": "-1.083914",
    "Latitude": "52.692487"
  },
  {
    "StopPointRef": "260008802",
    "CommonName": "Rail Station",
    "Indicator": null,
    "Longitude": "-1.080292",
    "Latitude": "52.694454"
  },
  {
    "StopPointRef": "260008811",
    "CommonName": "Rail Station",
    "Indicator": null,
    "Longitude": "-1.080280",
    "Latitude": "52.694311"
  },
  {
    "StopPointRef": "260008810",
    "CommonName": "Albert Street",
    "Indicator": null,
    "Longitude": "-1.077135",
    "Latitude": "52.696111"
  },
  {
    "StopPointRef": "260008803",
    "CommonName": "Albert Street",
    "Indicator": null,
    "Longitude": "-1.077462",
    "Latitude": "52.696060"
  },
  {
    "StopPointRef": "260008804",
    "CommonName": "Brookside",
    "Indicator": null,
    "Longitude": "-1.074761",
    "Latitude": "52.697801"
  },
  {
    "StopPointRef": "260008809",
    "CommonName": "Brookside",
    "Indicator": null,
    "Longitude": "-1.074180",
    "Latitude": "52.698003"
  },
  {
    "StopPointRef": "260008808",
    "CommonName": "Health Centre",
    "Indicator": null,
    "Longitude": "-1.072062",
    "Latitude": "52.699461"
  },
  {
    "StopPointRef": "260008805",
    "CommonName": "Health Centre",
    "Indicator": null,
    "Longitude": "-1.071061",
    "Latitude": "52.699947"
  },
  {
    "StopPointRef": "260008806",
    "CommonName": "Tentercroft Avenue",
    "Indicator": null,
    "Longitude": "-1.067967",
    "Latitude": "52.701370"
  },
  {
    "StopPointRef": "260008848",
    "CommonName": "Tentercroft Avenue",
    "Indicator": null,
    "Longitude": "-1.068540",
    "Latitude": "52.700889"
  },
  {
    "StopPointRef": "260007809",
    "CommonName": "Wreake Valley College",
    "Indicator": null,
    "Longitude": "-1.064501",
    "Latitude": "52.702880"
  },
  {
    "StopPointRef": "260008807",
    "CommonName": "Wreake Valley College",
    "Indicator": null,
    "Longitude": "-1.065695",
    "Latitude": "52.702449"
  },
  {
    "StopPointRef": "260007800",
    "CommonName": "New Zealand Lane",
    "Indicator": null,
    "Longitude": "-1.059894",
    "Latitude": "52.705172"
  },
  {
    "StopPointRef": "260007803",
    "CommonName": "New Zealand Lane",
    "Indicator": null,
    "Longitude": "-1.060810",
    "Latitude": "52.704559"
  },
  {
    "StopPointRef": "260007802",
    "CommonName": "Syston Road",
    "Indicator": null,
    "Longitude": "-1.057317",
    "Latitude": "52.706617"
  },
  {
    "StopPointRef": "260007801",
    "CommonName": "Syston Road",
    "Indicator": null,
    "Longitude": "-1.056939",
    "Latitude": "52.706983"
  },
  {
    "StopPointRef": "260006900",
    "CommonName": "Willowbrook Way",
    "Indicator": null,
    "Longitude": "-1.048151",
    "Latitude": "52.714311"
  },
  {
    "StopPointRef": "260006903",
    "CommonName": "Willowbrook Way",
    "Indicator": null,
    "Longitude": "-1.048795",
    "Latitude": "52.712599"
  },
  {
    "StopPointRef": "260006902",
    "CommonName": "Broome Lane",
    "Indicator": null,
    "Longitude": "-1.045256",
    "Latitude": "52.716742"
  },
  {
    "StopPointRef": "260080088",
    "CommonName": "Rose Drive",
    "Indicator": null,
    "Longitude": "-1.045645",
    "Latitude": "52.716557"
  },
  {
    "StopPointRef": "260006901",
    "CommonName": "Broome Lane",
    "Indicator": null,
    "Longitude": "-1.044106",
    "Latitude": "52.717848"
  },
  {
    "StopPointRef": "260008106",
    "CommonName": "Grange Avenue",
    "Indicator": null,
    "Longitude": "-1.042360",
    "Latitude": "52.719191"
  },
  {
    "StopPointRef": "260008100",
    "CommonName": "Grange Avenue",
    "Indicator": null,
    "Longitude": "-1.041918",
    "Latitude": "52.719727"
  },
  {
    "StopPointRef": "260008101",
    "CommonName": "Horse & Groom",
    "Indicator": null,
    "Longitude": "-1.039374",
    "Latitude": "52.721648"
  },
  {
    "StopPointRef": "260008105",
    "CommonName": "Horse & Groom",
    "Indicator": null,
    "Longitude": "-1.039439",
    "Latitude": "52.721397"
  },
  {
    "StopPointRef": "260008110",
    "CommonName": "The Wheel",
    "Indicator": null,
    "Longitude": "-1.037826",
    "Latitude": "52.722715"
  },
  {
    "StopPointRef": "260008102",
    "CommonName": "The Wheel",
    "Indicator": null,
    "Longitude": "-1.038048",
    "Latitude": "52.722707"
  },
  {
    "StopPointRef": "260008103",
    "CommonName": "Brookside",
    "Indicator": null,
    "Longitude": "-1.033490",
    "Latitude": "52.724630"
  },
  {
    "StopPointRef": "260008104",
    "CommonName": "Brookside",
    "Indicator": null,
    "Longitude": "-1.033118",
    "Latitude": "52.724672"
  },
  {
    "StopPointRef": "260008111",
    "CommonName": "Hives Farm",
    "Indicator": null,
    "Longitude": "-1.026991",
    "Latitude": "52.727220"
  },