[
  {
    "StopPointRef": "260007465",
    "CommonName": "Accommodation Centre",
    "Indicator": "adj",
    "LocalityName": "Loughborough",
    "Longitude": "-1.232319434",
    "Latitude": "52.764871967"
  },
  {
    "StopPointRef": "260007466",
    "CommonName": "Accommodation Centre",
    "Indicator": "opp",
    "LocalityName": "Loughborough",
    "Longitude": "-1.232069274",
    "Latitude": "52.764914761"
  },
  {
    "StopPointRef": "260007234",
    "CommonName": "Ashby Square",
    "Indicator": "Stand AA",
    "LocalityName": "Loughborough",
    "Longitude": "-1.210064413",
    "Latitude": "52.772130137"
  },
  {
    "StopPointRef": "260007423",
    "CommonName": "Beacon Bingo",
    "Indicator": "adj",
    "LocalityName": "Loughborough",
    "Longitude": "-1.209870855",
    "Latitude": "52.773699856"
  },
  {
    "StopPointRef": "260008533",
    "CommonName": "Burleigh Road",
    "Indicator": "adj",
    "LocalityName": "Loughborough",
    "Longitude": "-1.208316414",
    "Latitude": "52.772805112"
  },
  {
    "StopPointRef": "260007463",
    "CommonName": "Computer Studies",
    "Indicator": "adj",
    "LocalityName": "Loughborough",
    "Longitude": "-1.229130733",
    "Latitude": "52.766486200"
  },
  {
    "StopPointRef": "260007464",
    "CommonName": "Computer Studies",
    "Indicator": "after",
    "LocalityName": "Loughborough",
    "Longitude": "-1.229249987",
    "Latitude": "52.766423097"
  },
  {
    "StopPointRef": "260007332",
    "CommonName": "Greenclose Lane",
    "Indicator": "Stand GA",
    "LocalityName": "Loughborough",
    "Longitude": "-1.210169380",
    "Latitude": "52.772501427"
  },
  {
    "StopPointRef": "260007431",
    "CommonName": "Holywell Park",
    "Indicator": "outside",
    "LocalityName": "Loughborough",
    "Longitude": "-1.243349987",
    "Latitude": "52.760998197"
  },
  {
    "StopPointRef": "260007480",
    "CommonName": "Jack O'Lantern",
    "Indicator": "opp",
    "LocalityName": "Loughborough",
    "Longitude": "-1.199158571",
    "Latitude": "52.776124392"
  },
  {
    "StopPointRef": "260007430",
    "CommonName": "Mechanical Engineering",
    "Indicator": "opp",
    "LocalityName": "Loughborough",
    "Longitude": "-1.240748974",
    "Latitude": "52.762111499"
  },
  {
    "StopPointRef": "260007448",
    "CommonName": "Mechanical Engineering",
    "Indicator": "outside",
    "LocalityName": "Loughborough",
    "Longitude": "-1.240262686",
    "Latitude": "52.762335482"
  },
  {
    "StopPointRef": "260007467",
    "CommonName": "Pilkington Library",
    "Indicator": "opp",
    "LocalityName": "Loughborough",
    "Longitude": "-1.235314409",
    "Latitude": "52.763449138"
  },
  {
    "StopPointRef": "260007321",
    "CommonName": "Pilkington Library",
    "Indicator": "outside",
    "LocalityName": "Loughborough",
    "Longitude": "-1.236159781",
    "Latitude": "52.763069765"
  },
  {
    "StopPointRef": "260007424",
    "CommonName": "Radmoor Centre",
    "Indicator": "opposite",
    "LocalityName": "Loughborough",
    "Longitude": "-1.221216378",
    "Latitude": "52.768361638"
  },
  {
    "StopPointRef": "260007445",
    "CommonName": "Radmoor Centre",
    "Indicator": "outside",
    "LocalityName": "Loughborough",
    "Longitude": "-1.221219799",
    "Latitude": "52.768261737"
  },
  {
    "StopPointRef": "260007348",
    "CommonName": "Railway Station",
    "Indicator": "Stand A",
    "LocalityName": "Loughborough",
    "Longitude": "-1.196630087",
    "Latitude": "52.779137797"
  },
  {
    "StopPointRef": "260007451",
    "CommonName": "Railway Station",
    "Indicator": "Stand C",
    "LocalityName": "Loughborough",
    "Longitude": "-1.196356540",
    "Latitude": "52.777562209"
  },
  {
    "StopPointRef": "260007341",
    "CommonName": "Rectory Road",
    "Indicator": "adj",
    "LocalityName": "Loughborough",
    "Longitude": "-1.204030006",
    "Latitude": "52.775963229"
  },
  {
    "StopPointRef": "260007481",
    "CommonName": "Sense College",
    "Indicator": "opp",
    "LocalityName": "Loughborough",
    "Longitude": "-1.219122386",
    "Latitude": "52.769610839"
  },
  {
    "StopPointRef": "260007482",
    "CommonName": "Sense College",
    "Indicator": "outside",
    "LocalityName": "Loughborough",
    "Longitude": "-1.218910555",
    "Latitude": "52.769755471"
  },
  {
    "StopPointRef": "260007218",
    "CommonName": "STEM Lab",
    "Indicator": "adjacent",
    "LocalityName": "Loughborough",
    "Longitude": "-1.243349987",
    "Latitude": "52.760998197"
  },
  {
    "StopPointRef": "260007215",
    "CommonName": "STEM Lab",
    "Indicator": "opposite",
    "LocalityName": "Loughborough",
    "Longitude": "-1.243435904",
    "Latitude": "52.760987214"
  },
  {
    "StopPointRef": "260007428",
    "CommonName": "Student's Union",
    "Indicator": "adj",
    "LocalityName": "Loughborough",
    "Longitude": "-1.227412162",
    "Latitude": "52.768443720"
  },
  {
    "StopPointRef": "260007427",
    "CommonName": "Student's Union",
    "Indicator": "opp",
    "LocalityName": "Loughborough",
    "Longitude": "-1.227578391",
    "Latitude": "52.768363474"
  },
  {
    "StopPointRef": "260007436",
    "CommonName": "Swan Street",
    "Indicator": "Stand SB",
    "LocalityName": "Loughborough",
    "Longitude": "-1.208316414",
    "Latitude": "52.772805112"
  },
  {
    "StopPointRef": "260007343",
    "CommonName": "The Greyhound",
    "Indicator": "opp",
    "LocalityName": "Loughborough",
    "Longitude": "-1.199701584",
    "Latitude": "52.775423994"
  },
  {
    "StopPointRef": "260007213",
    "CommonName": "The Rushes",
    "Indicator": "Stand RA",
    "LocalityName": "Loughborough",
    "Longitude": "-1.209575670",
    "Latitude": "52.773551602"
  },
  {
    "StopPointRef": "260007214",
    "CommonName": "The Rushes",
    "Indicator": "Stand RC",
    "LocalityName": "Loughborough",
    "Longitude": "-1.209870855",
    "Latitude": "52.773699856"
  },
  {
    "StopPointRef": "260007286",
    "CommonName": "Ball Court",
    "Indicator": "adj",
    "LocalityName": "Loughborough",
    "Longitude": "-1.226590501",
    "Latitude": "52.768346925"
  },
  {
    "StopPointRef": "260007356",
    "CommonName": "East Link Road",
    "Indicator": "adj",
    "LocalityName": "Loughborough",
    "Longitude": "-1.225470979",
    "Latitude": "52.766221994"
  },
  {
    "StopPointRef": "260006300",
    "CommonName": "Beaumont Road",
    "Indicator": "adj",
    "LocalityName": "Barrow-upon-Soar",
    "Longitude": "-1.148418524",
    "Latitude": "52.752937617"
  },
  {
    "StopPointRef": "260006302",
    "CommonName": "Beaumont Road",
    "Indicator": "opp",
    "LocalityName": "Barrow-upon-Soar",
    "Longitude": "-1.147172680",
    "Latitude": "52.753680285"
  },
  {
    "StopPointRef": "260006312",
    "CommonName": "Beveridge Street",
    "Indicator": "adj",
    "LocalityName": "Barrow-upon-Soar",
    "Longitude": "-1.145952292",
    "Latitude": "52.750562703"
  },
  {
    "StopPointRef": "260006303",
    "CommonName": "Brook Lane",
    "Indicator": "adj",
    "LocalityName": "Barrow-upon-Soar",
    "Longitude": "-1.143348903",
    "Latitude": "52.754706079"
  },
  {
    "StopPointRef": "260006308",
    "CommonName": "Brook Lane",
    "Indicator": "opp",
    "LocalityName": "Barrow-upon-Soar",
    "Longitude": "-1.143553026",
    "Latitude": "52.754694394"
  },
  {
    "StopPointRef": "260006324",
    "CommonName": "Crossley Close",
    "Indicator": "adj",
    "LocalityName": "Barrow-upon-Soar",
    "Longitude": "-1.152120260",
    "Latitude": "52.750422192"
  },
  {
    "StopPointRef": "260006323",
    "CommonName": "Crossley Close",
    "Indicator": "opp",
    "LocalityName": "Barrow-upon-Soar",
    "Longitude": "-1.151918606",
    "Latitude": "52.750366848"
  },
  {
    "StopPointRef": "260006301",
    "CommonName": "Ennerdale Road",
    "Indicator": "adj",
    "LocalityName": "Barrow-upon-Soar",
    "Longitude": "-1.145956485",
    "Latitude": "52.754112061"
  },
  {
    "StopPointRef": "260080159",
    "CommonName": "Ennerdale Road",
    "Indicator": "opp",
    "LocalityName": "Barrow-upon-Soar",
    "Longitude": "-1.145606145",
    "Latitude": "52.754193327"
  },
  {
    "StopPointRef": "260006321",
    "CommonName": "European Leisure",
    "Indicator": "adjacent",
    "LocalityName": "Barrow-upon-Soar",
    "Longitude": "-1.140112542",
    "Latitude": "52.747246360"
  },
  {
    "StopPointRef": "260006316",
    "CommonName": "European Leisure",
    "Indicator": "opp",
    "LocalityName": "Barrow-upon-Soar",
    "Longitude": "-1.142271030",
    "Latitude": "52.747708519"
  },
  {
    "StopPointRef": "260006313",
    "CommonName": "Grove Lane",
    "Indicator": "adj",
    "LocalityName": "Barrow-upon-Soar",
    "Longitude": "-1.143810805",
    "Latitude": "52.750568382"
  },
  {
    "StopPointRef": "260006326",
    "CommonName": "Hayhill",
    "Indicator": "adj",
    "LocalityName": "Barrow-upon-Soar",
    "Longitude": "-1.126305689",
    "Latitude": "52.741294259"
  },
  {
    "StopPointRef": "260006325",
    "CommonName": "Hayhill",
    "Indicator": "opp",
    "LocalityName": "Barrow-upon-Soar",
    "Longitude": "-1.126812055",
    "Latitude": "52.741517197"
  },
  {
    "StopPointRef": "260006319",
    "CommonName": "Huston Close",
    "Indicator": "adj",
    "LocalityName": "Barrow-upon-Soar",
    "Longitude": "-1.133889443",
    "Latitude": "52.745250361"
  },
  {
    "StopPointRef": "260006318",
    "CommonName": "Huston Close",
    "Indicator": "opp",
    "LocalityName": "Barrow-upon-Soar",
    "Longitude": "-1.134496724",
    "Latitude": "52.745564776"
  },
  {
    "StopPointRef": "260006315",
    "CommonName": "Mill Lane",
    "Indicator": "adj",
    "LocalityName": "Barrow-upon-Soar",
    "Longitude": "-1.147432084",
    "Latitude": "52.749316837"
  },
  {
    "StopPointRef": "260006309",
    "CommonName": "New Street",
    "Indicator": "adj",
    "LocalityName": "Barrow-upon-Soar",
    "Longitude": "-1.141882362",
    "Latitude": "52.750926365"
  },
  {
    "StopPointRef": "260006310",
    "CommonName": "New Street",
    "Indicator": "opp",
    "LocalityName": "Barrow-upon-Soar",
    "Longitude": "-1.141893534",
    "Latitude": "52.750923121"
  },
  {
    "StopPointRef": "260006307",
    "CommonName": "Newton Close",
    "Indicator": "opposite",
    "LocalityName": "Barrow-upon-Soar",
    "Longitude": "-1.141257699",
    "Latitude": "52.753497213"
  },
  {
    "StopPointRef": "260006304",
    "CommonName": "Newton Close",
    "Indicator": "outside",
    "LocalityName": "Barrow-upon-Soar",
    "Longitude": "-1.141254783",
    "Latitude": "52.753493089"
  },
  {
    "StopPointRef": "260006327",
    "CommonName": "Post Office",
    "Indicator": "adj",
    "LocalityName": "Barrow-upon-Soar",
    "Longitude": "-1.149477849",
    "Latitude": "52.751206818"
  },
  {
    "StopPointRef": "260006322",
    "CommonName": "Post Office",
    "Indicator": "opp",
    "LocalityName": "Barrow-upon-Soar",
    "Longitude": "-1.149506610",
    "Latitude": "52.751135341"
  },
  {
    "StopPointRef": "260006311",
    "CommonName": "Rail Station",
    "Indicator": "opp",
    "LocalityName": "Barrow-upon-Soar",
    "Longitude": "-1.144383414",
    "Latitude": "52.749501614"
  },
  {
    "StopPointRef": "260006306",
    "CommonName": "The Banks",
    "Indicator": "adjacent",
    "LocalityName": "Barrow-upon-Soar",
    "Longitude": "-1.140372944",
    "Latitude": "52.752186637"
  },
  {
    "StopPointRef": "260006305",
    "CommonName": "The Banks",
    "Indicator": "opposite",
    "LocalityName": "Barrow-upon-Soar",
    "Longitude": "-1.139954939",
    "Latitude": "52.751570413"
  },
  {
    "StopPointRef": "260006320",
    "CommonName": "The Pastures",
    "Indicator": "adj",
    "LocalityName": "Barrow-upon-Soar",
    "Longitude": "-1.138072913",
    "Latitude": "52.746818381"
  },
  {
    "StopPointRef": "260006317",
    "CommonName": "The Pastures",
    "Indicator": "opp",
    "LocalityName": "Barrow-upon-Soar",
    "Longitude": "-1.137671954",
    "Latitude": "52.746714680"
  },
  {
    "StopPointRef": "260007337",
    "CommonName": "Aumberry Gap",
    "Indicator": "opp",
    "LocalityName": "Loughborough",
    "Longitude": "-1.202654181",
    "Latitude": "52.770418556"
  },
  {
    "StopPointRef": "260007455",
    "CommonName": "Baxter Gate",
    "Indicator": "Stand BB",
    "LocalityName": "Loughborough",
    "Longitude": "-1.201995131",
    "Latitude": "52.768911449"
  },
  {
    "StopPointRef": "260007221",
    "CommonName": "Beeches Road",
    "Indicator": "outside",
    "LocalityName": "Loughborough",
    "Longitude": "-1.197445340",
    "Latitude": "52.764098169"
  },
  {
    "StopPointRef": "260007223",
    "CommonName": "Cemetery",
    "Indicator": "opp",
    "LocalityName": "Loughborough",
    "Longitude": "-1.194613395",
    "Latitude": "52.759724071"
  },
  {
    "StopPointRef": "260007224",
    "CommonName": "Cemetery",
    "Indicator": "outside",
    "LocalityName": "Loughborough",
    "Longitude": "-1.195255177",
    "Latitude": "52.760284721"
  },
  {
    "StopPointRef": "260007226",
    "CommonName": "Grammar School",
    "Indicator": "adj",
    "LocalityName": "Loughborough",
    "Longitude": "-1.199331747",
    "Latitude": "52.766206514"
  },
  {
    "StopPointRef": "260007220",
    "CommonName": "Grammar School",
    "Indicator": "opp",
    "LocalityName": "Loughborough",
    "Longitude": "-1.200153556",
    "Latitude": "52.767121543"
  },
  {
    "StopPointRef": "260007225",
    "CommonName": "Shelthorpe Road",
    "Indicator": "adj",
    "LocalityName": "Loughborough",
    "Longitude": "-1.196990713",
    "Latitude": "52.763282362"
  },
  {
    "StopPointRef": "260007222",
    "CommonName": "Shelthorpe Road",
    "Indicator": "opp",
    "LocalityName": "Loughborough",
    "Longitude": "-1.196568516",
    "Latitude": "52.762484579"
  },
  {
    "StopPointRef": "260007227",
    "CommonName": "Southfields Park",
    "Indicator": "adj",
    "LocalityName": "Loughborough",
    "Longitude": "-1.201995131",
    "Latitude": "52.768911449"
  },
  {
    "StopPointRef": "260007923",
    "CommonName": "Quorn Hall",
    "Indicator": "adj",
    "LocalityName": "Quorn",
    "Longitude": "-1.163221207",
    "Latitude": "52.747720480"
  },
  {
    "StopPointRef": "260007924",
    "CommonName": "Quorn Hall",
    "Indicator": "opp",
    "LocalityName": "Quorn",
    "Longitude": "-1.162334515",
    "Latitude": "52.747358374"
  },
  {
    "StopPointRef": "260007932",
    "CommonName": "Barrow Road",
    "Indicator": "adj",
    "LocalityName": "Quorn",
    "Longitude": "-1.176028269",
    "Latitude": "52.745682019"
  },
  {
    "StopPointRef": "260007912",
    "CommonName": "Barrow Road",
    "Indicator": "outside",
    "LocalityName": "Quorn",
    "Longitude": "-1.176329622",
    "Latitude": "52.745775335"
  },
  {
    "StopPointRef": "260007918",
    "CommonName": "Car Park",
    "Indicator": "adj",
    "LocalityName": "Quorn",
    "Longitude": "-1.169727607",
    "Latitude": "52.743158464"
  },
  {
    "StopPointRef": "260007919",
    "CommonName": "Disraeli Street",
    "Indicator": "adj",
    "LocalityName": "Quorn",
    "Longitude": "-1.166736200",
    "Latitude": "52.745048818"
  },
  {
    "StopPointRef": "260007929",
    "CommonName": "Farley Way",
    "Indicator": "NW Bound",
    "LocalityName": "Quorn",
    "Longitude": "-1.181435792",
    "Latitude": "52.747437204"
  },
  {
    "StopPointRef": "260007915",
    "CommonName": "Farley Way",
    "Indicator": "SE Bound",
    "LocalityName": "Quorn",
    "Longitude": "-1.178823106",
    "Latitude": "52.746572336"
  },
  {
    "StopPointRef": "260080018",
    "CommonName": "Fenney Copse Farm",
    "Indicator": "adj",
    "LocalityName": "Quorn",
    "Longitude": "-1.166880656",
    "Latitude": "52.749137055"
  },
  {
    "StopPointRef": "260080019",
    "CommonName": "Fenney Copse Farm",
    "Indicator": "opp",
    "LocalityName": "Quorn",
    "Longitude": "-1.167311725",
    "Latitude": "52.749190278"
  },
  {
    "StopPointRef": "260007921",
    "CommonName": "Freehold Street",
    "Indicator": "adj",
    "LocalityName": "Quorn",
    "Longitude": "-1.162672517",
    "Latitude": "52.746108088"
  },
  {
    "StopPointRef": "260007922",
    "CommonName": "Freehold Street",
    "Indicator": "opp",
    "LocalityName": "Quorn",
    "Longitude": "-1.163274222",
    "Latitude": "52.745838836"
  },
  {
    "StopPointRef": "260007913",
    "CommonName": "Main Street",
    "Indicator": "adjacent",
    "LocalityName": "Quorn",
    "Longitude": "-1.190967187",
    "Latitude": "52.756986197"
  },
  {
    "StopPointRef": "260007914",
    "CommonName": "Main Street",
    "Indicator": "opposite",
    "LocalityName": "Quorn",
    "Longitude": "-1.189245634",
    "Latitude": "52.756136794"
  },
  {
    "StopPointRef": "260007934",
    "CommonName": "Peter McCaig Way",
    "Indicator": "adj",
    "LocalityName": "Quorn",
    "Longitude": "-1.164159917",
    "Latitude": "52.748210261"
  },
  {
    "StopPointRef": "260007933",
    "CommonName": "Peter McCaig Way",
    "Indicator": "opp",
    "LocalityName": "Quorn",
    "Longitude": "-1.164686863",
    "Latitude": "52.748530822"
  },
  {
    "StopPointRef": "260007920",
    "CommonName": "Stoop Lane",
    "Indicator": "opp",
    "LocalityName": "Quorn",
    "Longitude": "-1.164768375",
    "Latitude": "52.744539218"
  },
  {
    "StopPointRef": "260007902",
    "CommonName": "Weavers Close",
    "Indicator": "opp",
    "LocalityName": "Quorn",
    "Longitude": "-1.168232399",
    "Latitude": "52.742481348"
  },
  {
    "StopPointRef": "260007911",
    "CommonName": "Quorndon Fox",
    "Indicator": "adj",
    "LocalityName": "Quorn",
    "Longitude": "-1.172542807",
    "Latitude": "52.744201487"
  },
  {
    "StopPointRef": "260007916",
    "CommonName": "Quorndon Fox",
    "Indicator": "opp",
    "LocalityName": "Quorn",
    "Longitude": "-1.173173669",
    "Latitude": "52.744614702"
  },
  {
    "StopPointRef": "260008508",
    "CommonName": "Back Lane",
    "Indicator": "adj",
    "LocalityName": "Sileby",
    "Longitude": "-1.109715319",
    "Latitude": "52.730019371"
  },
  {
    "StopPointRef": "260008528",
    "CommonName": "Barrow Road",
    "Indicator": "northbound",
    "LocalityName": "Sileby",
    "Longitude": "-1.119636930",
    "Latitude": "52.738790668"
  },
  {
    "StopPointRef": "260008525",
    "CommonName": "Barrow Road",
    "Indicator": "southbound",
    "LocalityName": "Sileby",
    "Longitude": "-1.120183442",
    "Latitude": "52.738977643"
  },
  {
    "StopPointRef": "260008519",
    "CommonName": "Collingwood Drive",
    "Indicator": "adj",
    "LocalityName": "Sileby",
    "Longitude": "-1.103055233",
    "Latitude": "52.737794308"
  },
  {
    "StopPointRef": "260008517",
    "CommonName": "Gibson Road",
    "Indicator": "opposite",
    "LocalityName": "Sileby",
    "Longitude": "-1.098189543",
    "Latitude": "52.735266822"
  },
  {
    "StopPointRef": "260008506",
    "CommonName": "Lovett Court",
    "Indicator": "adj",
    "LocalityName": "Sileby",
    "Longitude": "-1.112444887",
    "Latitude": "52.732202597"
  },
  {
    "StopPointRef": "260008505",
    "CommonName": "Lovett Court",
    "Indicator": "opp",
    "LocalityName": "Sileby",
    "Longitude": "-1.112505488",
    "Latitude": "52.732292980"
  },
  {
    "StopPointRef": "260008510",
    "CommonName": "Memorial Park",
    "Indicator": "outside",
    "LocalityName": "Sileby",
    "Longitude": "-1.107135410",
    "Latitude": "52.733983358"
  },
  {
    "StopPointRef": "260008518",
    "CommonName": "Nebold Close",
    "Indicator": "outside",
    "LocalityName": "Sileby",
    "Longitude": "-1.099856974",
    "Latitude": "52.736913613"
  },
  {
    "StopPointRef": "260008516",
    "CommonName": "Northill Close",
    "Indicator": "outside",
    "LocalityName": "Sileby",
    "Longitude": "-1.096964336",
    "Latitude": "52.733517105"
  },
  {
    "StopPointRef": "260008509",
    "CommonName": "Post Office",
    "Indicator": "outside",
    "LocalityName": "Sileby",
    "Longitude": "-1.105342250",
    "Latitude": "52.731864141"
  },
  {
    "StopPointRef": "260008515",
    "CommonName": "Storer Close",
    "Indicator": "opp",
    "LocalityName": "Sileby",
    "Longitude": "-1.102593885",
    "Latitude": "52.732418939"
  },
  {
    "StopPointRef": "260008514",
    "CommonName": "Swan Street",
    "Indicator": "opp",
    "LocalityName": "Sileby",
    "Longitude": "-1.104164240",
    "Latitude": "52.731563737"
  },
  {
    "StopPointRef": "260008529",
    "CommonName": "The Malt House",
    "Indicator": "opposite",
    "LocalityName": "Sileby",
    "Longitude": "-1.110529756",
    "Latitude": "52.730146128"
  },
  {
    "StopPointRef": "260008530",
    "CommonName": "The Malt House",
    "Indicator": "outside",
    "LocalityName": "Sileby",
    "Longitude": "-1.110868434",
    "Latitude": "52.730353519"
  },
  {
    "StopPointRef": "260008527",
    "CommonName": "Wrights Acre",
    "Indicator": "opposite",
    "LocalityName": "Sileby",
    "Longitude": "-1.114172030",
    "Latitude": "52.733621239"
  },
  {
    "StopPointRef": "260008526",
    "CommonName": "Wrights Acre",
    "Indicator": "outside",
    "LocalityName": "Sileby",
    "Longitude": "-1.114924718",
    "Latitude": "52.734500026"
  },
  {
    "StopPointRef": "260007252",
    "CommonName": "Ashleigh Drive",
    "Indicator": "adj",
    "LocalityName": "Loughborough",
    "Longitude": "-1.224418743",
    "Latitude": "52.762244060"
  },
  {
    "StopPointRef": "260007259",
    "CommonName": "Ashleigh Drive",
    "Indicator": "opp",
    "LocalityName": "Loughborough",
    "Longitude": "-1.223445691",
    "Latitude": "52.762570640"
  },
  {
    "StopPointRef": "260007285",
    "CommonName": "Atherstone Road",
    "Indicator": "opposite",
    "LocalityName": "Loughborough",
    "Longitude": "-1.213782959",
    "Latitude": "52.753810227"
  },
  {
    "StopPointRef": "260007284",
    "CommonName": "Atherstone Road",
    "Indicator": "outside",
    "LocalityName": "Loughborough",
    "Longitude": "-1.213792405",
    "Latitude": "52.753804452"
  },
  {
    "StopPointRef": "260007415",
    "CommonName": "Bagley Close",
    "Indicator": "opp",
    "LocalityName": "Loughborough",
    "Longitude": "-1.237719127",
    "Latitude": "52.782934759"
  },
  {
    "StopPointRef": "260007304",
    "CommonName": "Beaumont Road",
    "Indicator": "adj",
    "LocalityName": "Loughborough",
    "Longitude": "-1.208376367",
    "Latitude": "52.753935770"
  },
  {
    "StopPointRef": "260007301",
    "CommonName": "Beaumont Road",
    "Indicator": "opp",
    "LocalityName": "Loughborough",
    "Longitude": "-1.208520024",
    "Latitude": "52.753961438"
  },
  {
    "StopPointRef": "260007203",
    "CommonName": "Belton Road",
    "Indicator": "adj",
    "LocalityName": "Loughborough",
    "Longitude": "-1.216478778",
    "Latitude": "52.776791709"
  },
  {
    "StopPointRef": "260007208",
    "CommonName": "Belton Road",
    "Indicator": "opp",
    "LocalityName": "Loughborough",
    "Longitude": "-1.216165287",
    "Latitude": "52.776685397"
  },
  {
    "StopPointRef": "260007251",
    "CommonName": "Benscliffe Drive",
    "Indicator": "adj",
    "LocalityName": "Loughborough",
    "Longitude": "-1.226981757",
    "Latitude": "52.761074363"
  },
  {
    "StopPointRef": "260007260",
    "CommonName": "Benscliffe Drive",
    "Indicator": "opp",
    "LocalityName": "Loughborough",
    "Longitude": "-1.227341024",
    "Latitude": "52.760898260"
  },
  {
    "StopPointRef": "260007267",
    "CommonName": "Brookside Road",
    "Indicator": "adj",
    "LocalityName": "Loughborough",
    "Longitude": "-1.228820612",
    "Latitude": "52.756596366"
  },
  {
    "StopPointRef": "260007414",
    "CommonName": "Canning Way",
    "Indicator": "adj",
    "LocalityName": "Loughborough",
    "Longitude": "-1.241122625",
    "Latitude": "52.783603362"
  },
  {
    "StopPointRef": "260007409",
    "CommonName": "Canning Way",
    "Indicator": "opp",
    "LocalityName": "Loughborough",
    "Longitude": "-1.240669845",
    "Latitude": "52.783336030"
  },
  {
    "StopPointRef": "260007389",
    "CommonName": "Carington Street",
    "Indicator": "adj",
    "LocalityName": "Loughborough",
    "Longitude": "-1.222885123",
    "Latitude": "52.778264615"
  },
  {
    "StopPointRef": "260007391",
    "CommonName": "Carington Street",
    "Indicator": "opp",
    "LocalityName": "Loughborough",
    "Longitude": "-1.222556405",
    "Latitude": "52.778361904"
  },
  {
    "StopPointRef": "260007417",
    "CommonName": "Charteris Close",
    "Indicator": "adj",
    "LocalityName": "Loughborough",
    "Longitude": "-1.232937646",
    "Latitude": "52.779901757"
  },
  {
    "StopPointRef": "260007408",
    "CommonName": "Charteris Close",
    "Indicator": "opp",
    "LocalityName": "Loughborough",
    "Longitude": "-1.233389575",
    "Latitude": "52.780056353"
  },
  {
    "StopPointRef": "260007396",
    "CommonName": "Chiswick Drive",
    "Indicator": "adj",
    "LocalityName": "Loughborough",
    "Longitude": "-1.240924820",
    "Latitude": "52.774372622"
  },
  {
    "StopPointRef": "260007399",
    "CommonName": "Chiswick Drive",
    "Indicator": "opp",
    "LocalityName": "Loughborough",
    "Longitude": "-1.240514503",
    "Latitude": "52.774285242"
  },
  {
    "StopPointRef": "260007269",
    "CommonName": "Cleveland Road",
    "Indicator": "adj",
    "LocalityName": "Loughborough",
    "Longitude": "-1.219136322",
    "Latitude": "52.752128764"
  },
  {
    "StopPointRef": "260007270",
    "CommonName": "Cleveland Road",
    "Indicator": "opp",
    "LocalityName": "Loughborough",
    "Longitude": "-1.218730938",
    "Latitude": "52.752217890"
  },
  {
    "StopPointRef": "260007293",
    "CommonName": "Community Centre",
    "Indicator": "adj",
    "LocalityName": "Loughborough",
    "Longitude": "-1.202428689",
    "Latitude": "52.759537424"
  },
  {
    "StopPointRef": "260007296",
    "CommonName": "Community Centre",
    "Indicator": "opp",
    "LocalityName": "Loughborough",
    "Longitude": "-1.202155203",
    "Latitude": "52.759792632"
  },
  {
    "StopPointRef": "260007406",
    "CommonName": "Conway Close",
    "Indicator": "adj",
    "LocalityName": "Loughborough",
    "Longitude": "-1.245676890",
    "Latitude": "52.777483382"
  },
  {
    "StopPointRef": "260007407",
    "CommonName": "Cothelstone Avenue",
    "Indicator": "adj",
    "LocalityName": "Loughborough",
    "Longitude": "-1.243058336",
    "Latitude": "52.775670406"
  },
  {
    "StopPointRef": "260007205",
    "CommonName": "Derby Road",
    "Indicator": "Stand DA",
    "LocalityName": "Loughborough",
    "Longitude": "-1.211674432",
    "Latitude": "52.774630636"
  },
  {
    "StopPointRef": "260007206",
    "CommonName": "Derby Road",
    "Indicator": "Stand DB",
    "LocalityName": "Loughborough",
    "Longitude": "-1.211714687",
    "Latitude": "52.774658514"
  },
  {
    "StopPointRef": "260007404",
    "CommonName": "Duncan Way",
    "Indicator": "opp",
    "LocalityName": "Loughborough",
    "Longitude": "-1.242993702",
    "Latitude": "52.779410283"
  },
  {
    "StopPointRef": "260007419",
    "CommonName": "Ellaby Road",
    "Indicator": "opp",
    "LocalityName": "Loughborough",
    "Longitude": "-1.232012638",
    "Latitude": "52.782551716"
  },
  {
    "StopPointRef": "260007420",
    "CommonName": "Ellaby Road",
    "Indicator": "outside",
    "LocalityName": "Loughborough",
    "Longitude": "-1.231775918",
    "Latitude": "52.782536339"
  },
  {
    "StopPointRef": "260007255",
    "CommonName": "Emmanuel Church",
    "Indicator": "adj",
    "LocalityName": "Loughborough",
    "Longitude": "-1.210256036",
    "Latitude": "52.766821341"
  },
  {
    "StopPointRef": "260007256",
    "CommonName": "Emmanuel Church",
    "Indicator": "opp",
    "LocalityName": "Loughborough",
    "Longitude": "-1.209909383",
    "Latitude": "52.766962518"
  },
  {
    "StopPointRef": "260007297",
    "CommonName": "Farnham Road",
    "Indicator": "adj",
    "LocalityName": "Loughborough",
    "Longitude": "-1.205694648",
    "Latitude": "52.757720332"
  },
  {
    "StopPointRef": "260007298",
    "CommonName": "Farnham Road",
    "Indicator": "opp",
    "LocalityName": "Loughborough",
    "Longitude": "-1.205592328",
    "Latitude": "52.757847951"
  },
  {
    "StopPointRef": "260007479",
    "CommonName": "Fennel Street",
    "Indicator": "Stand FA",
    "LocalityName": "Loughborough",
    "Longitude": "-1.207637032",
    "Latitude": "52.774572044"
  },
  {
    "StopPointRef": "260007416",
    "CommonName": "Gavin Drive",
    "Indicator": "adj",
    "LocalityName": "Loughborough",
    "Longitude": "-1.235225049",
    "Latitude": "52.781167447"
  },
  {
    "StopPointRef": "260007418",
    "CommonName": "Grafton Road",
    "Indicator": "opp",
    "LocalityName": "Loughborough",
    "Longitude": "-1.229227930",
    "Latitude": "52.781753844"
  },
  {
    "StopPointRef": "260007421",
    "CommonName": "Grafton Road",
    "Indicator": "outside",
    "LocalityName": "Loughborough",
    "Longitude": "-1.229223396",
    "Latitude": "52.781751728"
  },
  {
    "StopPointRef": "260007439",
    "CommonName": "Grasmere Road",
    "Indicator": "adj",
    "LocalityName": "Loughborough",
    "Longitude": "-1.218202648",
    "Latitude": "52.750251796"
  },
  {
    "StopPointRef": "260007299",
    "CommonName": "Griggs Road",
    "Indicator": "opp",
    "LocalityName": "Loughborough",
    "Longitude": "-1.203676253",
    "Latitude": "52.753968785"
  },
  {
    "StopPointRef": "260007281",
    "CommonName": "Herrick Road",
    "Indicator": "opp",
    "LocalityName": "Loughborough",
    "Longitude": "-1.205737241",
    "Latitude": "52.761179775"
  },
  {
    "StopPointRef": "260007288",
    "CommonName": "Herrick Road",
    "Indicator": "outside",
    "LocalityName": "Loughborough",
    "Longitude": "-1.205689536",
    "Latitude": "52.760747584"
  },
  {
    "StopPointRef": "260007402",
    "CommonName": "Herriot Way",
    "Indicator": "adj",
    "LocalityName": "Loughborough",
    "Longitude": "-1.236236433",
    "Latitude": "52.780078923"
  },
  {
    "StopPointRef": "260006542",
    "CommonName": "High Street",
    "Indicator": "Stand HC",
    "LocalityName": "Loughborough",
    "Longitude": "-1.208126160",
    "Latitude": "52.768520631"
  },
  {
    "StopPointRef": "260007400",
    "CommonName": "Kensington Avenue",
    "Indicator": "adj",
    "LocalityName": "Loughborough",
    "Longitude": "-1.237813734",
    "Latitude": "52.777102092"
  },
  {
    "StopPointRef": "260007202",
    "CommonName": "Kings Avenue",
    "Indicator": "adj",
    "LocalityName": "Loughborough",
    "Longitude": "-1.222556405",
    "Latitude": "52.778361904"
  },
  {
    "StopPointRef": "260007209",
    "CommonName": "Kings Avenue",
    "Indicator": "opp",
    "LocalityName": "Loughborough",
    "Longitude": "-1.218683186",
    "Latitude": "52.778339571"
  },
  {
    "StopPointRef": "260007401",
    "CommonName": "Kinross Crescent",
    "Indicator": "opp",
    "LocalityName": "Loughborough",
    "Longitude": "-1.236401628",
    "Latitude": "52.778197959"
  },
  {
    "StopPointRef": "260007250",
    "CommonName": "Kirkstone Drive",
    "Indicator": "adj",
    "LocalityName": "Loughborough",
    "Longitude": "-1.231615715",
    "Latitude": "52.758562749"
  },
  {
    "StopPointRef": "260007261",
    "CommonName": "Kirkstone Drive",
    "Indicator": "opp",
    "LocalityName": "Loughborough",
    "Longitude": "-1.231123494",
    "Latitude": "52.758901689"
  },
  {
    "StopPointRef": "260007210",
    "CommonName": "Knightthorpe Road",
    "Indicator": "outside",
    "LocalityName": "Loughborough",
    "Longitude": "-1.220444363",
    "Latitude": "52.779575220"
  },
  {
    "StopPointRef": "260007290",
    "CommonName": "Lanesborough Court",
    "Indicator": "opp",
    "LocalityName": "Loughborough",
    "Longitude": "-1.207378213",
    "Latitude": "52.765174043"
  },
  {
    "StopPointRef": "260007279",
    "CommonName": "Lanesborough Court",
    "Indicator": "outside",
    "LocalityName": "Loughborough",
    "Longitude": "-1.207780875",
    "Latitude": "52.765454080"
  },
  {
    "StopPointRef": "260018577",
    "CommonName": "Laurel Road",
    "Indicator": "adj",
    "LocalityName": "Loughborough",
    "Longitude": "-1.211131558",
    "Latitude": "52.750581273"
  },
  {
    "StopPointRef": "260007397",
    "CommonName": "Leckhampton Road",
    "Indicator": "adj",
    "LocalityName": "Loughborough",
    "Longitude": "-1.244302143",
    "Latitude": "52.775208816"
  },
  {
    "StopPointRef": "260007398",
    "CommonName": "Leckhampton Road",
    "Indicator": "opp",
    "LocalityName": "Loughborough",
    "Longitude": "-1.244208174",
    "Latitude": "52.775196838"
  },
  {
    "StopPointRef": "260070067",
    "CommonName": "Ledbury Road",
    "Indicator": "adj",
    "LocalityName": "Loughborough",
    "Longitude": "-1.219341700",
    "Latitude": "52.751676550"
  },
  {
    "StopPointRef": "260007310",
    "CommonName": "Lemontree Lane",
    "Indicator": "opp",
    "LocalityName": "Loughborough",
    "Longitude": "-1.215437882",
    "Latitude": "52.749234166"
  },
  {
    "StopPointRef": "260007207",
    "CommonName": "Leopold Street",
    "Indicator": "adj",
    "LocalityName": "Loughborough",
    "Longitude": "-1.213857679",
    "Latitude": "52.775802162"
  },
  {
    "StopPointRef": "260007204",
    "CommonName": "Leopold Street",
    "Indicator": "opp",
    "LocalityName": "Loughborough",
    "Longitude": "-1.214414889",
    "Latitude": "52.776037318"
  },
  {
    "StopPointRef": "260007262",
    "CommonName": "Linford Road",
    "Indicator": "adj",
    "LocalityName": "Loughborough",
    "Longitude": "-1.231313924",
    "Latitude": "52.757510454"
  },
  {
    "StopPointRef": "260007268",
    "CommonName": "Linford Road",
    "Indicator": "opp",
    "LocalityName": "Loughborough",
    "Longitude": "-1.231376609",
    "Latitude": "52.757555011"
  },
  {
    "StopPointRef": "260007405",
    "CommonName": "Lorrimer Way",
    "Indicator": "adj",
    "LocalityName": "Loughborough",
    "Longitude": "-1.245288571",
    "Latitude": "52.779225058"
  },
  {
    "StopPointRef": "260007412",
    "CommonName": "Lyall Close",
    "Indicator": "opp",
    "LocalityName": "Loughborough",
    "Longitude": "-1.236360706",
    "Latitude": "52.783395126"
  },
  {
    "StopPointRef": "260007411",
    "CommonName": "Lyall Close",
    "Indicator": "outside",
    "LocalityName": "Loughborough",
    "Longitude": "-1.236280704",
    "Latitude": "52.783345232"
  },
  {
    "StopPointRef": "260007305",
    "CommonName": "Maple Road",
    "Indicator": "adj",
    "LocalityName": "Loughborough",
    "Longitude": "-1.204173957",
    "Latitude": "52.753586795"
  },
  {
    "StopPointRef": "260007311",
    "CommonName": "Maple Road",
    "Indicator": "opp",
    "LocalityName": "Loughborough",
    "Longitude": "-1.204633843",
    "Latitude": "52.753589047"
  },
  {
    "StopPointRef": "260007388",
    "CommonName": "Milton Street",
    "Indicator": "adj",
    "LocalityName": "Loughborough",
    "Longitude": "-1.226238320",
    "Latitude": "52.777420130"
  },
  {
    "StopPointRef": "260007392",
    "CommonName": "Milton Street",
    "Indicator": "opp",
    "LocalityName": "Loughborough",
    "Longitude": "-1.226673148",
    "Latitude": "52.777345071"
  },
  {
    "StopPointRef": "260007403",
    "CommonName": "Morrisons",
    "Indicator": "outside",
    "LocalityName": "Loughborough",
    "Longitude": "-1.238787267",
    "Latitude": "52.779460959"
  },
  {
    "StopPointRef": "260007422",
    "CommonName": "New Street",
    "Indicator": "adj",
    "LocalityName": "Loughborough",
    "Longitude": "-1.210256036",
    "Latitude": "52.766821341"
  },
  {
    "StopPointRef": "260007258",
    "CommonName": "Oaklands Avenue",
    "Indicator": "opposite",
    "LocalityName": "Loughborough",
    "Longitude": "-1.220269006",
    "Latitude": "52.763610817"
  },
  {
    "StopPointRef": "260007253",
    "CommonName": "Oaklands Avenue",
    "Indicator": "outside",
    "LocalityName": "Loughborough",
    "Longitude": "-1.220105963",
    "Latitude": "52.763661926"
  },
  {
    "StopPointRef": "260007289",
    "CommonName": "Oliver Road",
    "Indicator": "adj",
    "LocalityName": "Loughborough",
    "Longitude": "-1.206025685",
    "Latitude": "52.763186426"
  },
  {
    "StopPointRef": "260007280",
    "CommonName": "Oliver Road",
    "Indicator": "opp",
    "LocalityName": "Loughborough",
    "Longitude": "-1.206032059",
    "Latitude": "52.763404519"
  },
  {
    "StopPointRef": "260007308",
    "CommonName": "Outwoods Edge School",
    "Indicator": "adj",
    "LocalityName": "Loughborough",
    "Longitude": "-1.210590946",
    "Latitude": "52.748859878"
  },
  {
    "StopPointRef": "260007264",
    "CommonName": "Outwoods Road",
    "Indicator": "adj",
    "LocalityName": "Loughborough",
    "Longitude": "-1.223387844",
    "Latitude": "52.753896437"
  },
  {
    "StopPointRef": "260007265",
    "CommonName": "Outwoods Road",
    "Indicator": "opp",
    "LocalityName": "Loughborough",
    "Longitude": "-1.219341700",
    "Latitude": "52.751676550"
  },
  {
    "StopPointRef": "260007266",
    "CommonName": "Pantain Road",
    "Indicator": "adj",
    "LocalityName": "Loughborough",
    "Longitude": "-1.225818669",
    "Latitude": "52.756321034"
  },
  {
    "StopPointRef": "260007263",
    "CommonName": "Pantain Road",
    "Indicator": "opp",
    "LocalityName": "Loughborough",
    "Longitude": "-1.225828593",
    "Latitude": "52.756329008"
  },
  {
    "StopPointRef": "260007300",
    "CommonName": "Pultney Road",
    "Indicator": "adj",
    "LocalityName": "Loughborough",
    "Longitude": "-1.205751935",
    "Latitude": "52.755834977"
  },
  {
    "StopPointRef": "260007313",
    "CommonName": "Pultney Road",
    "Indicator": "opp",
    "LocalityName": "Loughborough",
    "Longitude": "-1.205679890",
    "Latitude": "52.755798158"
  },
  {
    "StopPointRef": "260007211",
    "CommonName": "Retail Park",
    "Indicator": "adj",
    "LocalityName": "Loughborough",
    "Longitude": "-1.225090406",
    "Latitude": "52.781585213"
  },
  {
    "StopPointRef": "260007201",
    "CommonName": "Retail Park",
    "Indicator": "opp",
    "LocalityName": "Loughborough",
    "Longitude": "-1.223274311",
    "Latitude": "52.781144874"
  },
  {
    "StopPointRef": "260007390",
    "CommonName": "Ring o Bells",
    "Indicator": "opp",
    "LocalityName": "Loughborough",
    "Longitude": "-1.220430704",
    "Latitude": "52.778887788"
  },
  {
    "StopPointRef": "260007291",
    "CommonName": "Royland Road",
    "Indicator": "opp",
    "LocalityName": "Loughborough",
    "Longitude": "-1.208949774",
    "Latitude": "52.766473259"
  },
  {
    "StopPointRef": "260007413",
    "CommonName": "Seton Close",
    "Indicator": "adj",
    "LocalityName": "Loughborough",
    "Longitude": "-1.239681426",
    "Latitude": "52.784482087"
  },
  {
    "StopPointRef": "260007410",
    "CommonName": "Seton Close",
    "Indicator": "opp",
    "LocalityName": "Loughborough",
    "Longitude": "-1.239927041",
    "Latitude": "52.784526946"
  },
  {
    "StopPointRef": "260007387",
    "CommonName": "Shelley Street",
    "Indicator": "adj",
    "LocalityName": "Loughborough",
    "Longitude": "-1.229601260",
    "Latitude": "52.776593064"
  },
  {
    "StopPointRef": "260007393",
    "CommonName": "Shelley Street",
    "Indicator": "opp",
    "LocalityName": "Loughborough",
    "Longitude": "-1.229900635",
    "Latitude": "52.776475676"
  },
  {
    "StopPointRef": "260007309",
    "CommonName": "Spindle Road",
    "Indicator": "adj",
    "LocalityName": "Loughborough",
    "Longitude": "-1.213618101",
    "Latitude": "52.747695542"
  },
  {
    "StopPointRef": "260007437",
    "CommonName": "Swan Street",
    "Indicator": "Stand SC",
    "LocalityName": "Loughborough",
    "Longitude": "-1.208156256",
    "Latitude": "52.772705343"
  },
  {
    "StopPointRef": "260070215",
    "CommonName": "The Rushes",
    "Indicator": "Stand RB",
    "LocalityName": "Loughborough",
    "Longitude": "-1.209503476",
    "Latitude": "52.773493534"
  },
  {
    "StopPointRef": "260007395",
    "CommonName": "Thorpe Acre Road",
    "Indicator": "adj",
    "LocalityName": "Loughborough",
    "Longitude": "-1.236905784",
    "Latitude": "52.774081352"
  },
  {
    "StopPointRef": "260070186",
    "CommonName": "Thorpe Acre Road",
    "Indicator": "opp",
    "LocalityName": "Loughborough",
    "Longitude": "-1.237079714",
    "Latitude": "52.773982252"
  },
  {
    "StopPointRef": "260007257",
    "CommonName": "Wallace Road",
    "Indicator": "adj",
    "LocalityName": "Loughborough",
    "Longitude": "-1.216084634",
    "Latitude": "52.764728900"
  },
  {
    "StopPointRef": "260007254",
    "CommonName": "Wallace Road",
    "Indicator": "opp",
    "LocalityName": "Loughborough",
    "Longitude": "-1.214646719",
    "Latitude": "52.765371719"
  },
  {
    "StopPointRef": "260007306",
    "CommonName": "Walnut Road",
    "Indicator": "adj",
    "LocalityName": "Loughborough",
    "Longitude": "-1.210465597",
    "Latitude": "52.752424782"
  },
  {
    "StopPointRef": "260007335",
    "CommonName": "Wards End",
    "Indicator": "adj",
    "LocalityName": "Loughborough",
    "Longitude": "-1.209040622",
    "Latitude": "52.768332061"
  },
  {
    "StopPointRef": "260007303",
    "CommonName": "Willow Road",
    "Indicator": "adj",
    "LocalityName": "Loughborough",
    "Longitude": "-1.211014449",
    "Latitude": "52.754895971"
  },
  {
    "StopPointRef": "260007302",
    "CommonName": "Willow Road",
    "Indicator": "opp",
    "LocalityName": "Loughborough",
    "Longitude": "-1.210636130",
    "Latitude": "52.754682348"
  },
  {
    "StopPointRef": "260007386",
    "CommonName": "Windsor Road",
    "Indicator": "adj",
    "LocalityName": "Loughborough",
    "Longitude": "-1.233606676",
    "Latitude": "52.775605016"
  },
  {
    "StopPointRef": "260007394",
    "CommonName": "Windsor Road",
    "Indicator": "opp",
    "LocalityName": "Loughborough",
    "Longitude": "-1.233925455",
    "Latitude": "52.775477870"
  },
  {
    "StopPointRef": "260007295",
    "CommonName": "Woodthorpe Road",
    "Indicator": "adj",
    "LocalityName": "Loughborough",
    "Longitude": "-1.203976361",
    "Latitude": "52.758339784"
  },
  {
    "StopPointRef": "260007292",
    "CommonName": "Woodthorpe Road",
    "Indicator": "opp",
    "LocalityName": "Loughborough",
    "Longitude": "-1.202301920",
    "Latitude": "52.761337281"
  },
  {
    "StopPointRef": "260007294",
    "CommonName": "Woodthorpe Road",
    "Indicator": "outside",
    "LocalityName": "Loughborough",
    "Longitude": "-1.202428689",
    "Latitude": "52.759537424"
  },
  {
    "StopPointRef": "260007373",
    "CommonName": "Albany Street",
    "Indicator": "adj",
    "LocalityName": "Loughborough",
    "Longitude": "-1.221647811",
    "Latitude": "52.775909019"
  },
  {
    "StopPointRef": "260007361",
    "CommonName": "Albany Street",
    "Indicator": "opp",
    "LocalityName": "Loughborough",
    "Longitude": "-1.222407908",
    "Latitude": "52.775774207"
  },
  {
    "StopPointRef": "260007275",
    "CommonName": "Beacon Drive",
    "Indicator": "opp",
    "LocalityName": "Loughborough",
    "Longitude": "-1.213319695",
    "Latitude": "52.760622836"
  },
  {
    "StopPointRef": "260007476",
    "CommonName": "Blackbrook Road",
    "Indicator": "opp",
    "LocalityName": "Loughborough",
    "Longitude": "-1.239522424",
    "Latitude": "52.767539607"
  },
  {
    "StopPointRef": "260007327",
    "CommonName": "Booth Wood Primary School",
    "Indicator": "opp",
    "LocalityName": "Loughborough",
    "Longitude": "-1.241022787",
    "Latitude": "52.767480797"
  },
  {
    "StopPointRef": "260007370",
    "CommonName": "Burns Road",
    "Indicator": "adj",
    "LocalityName": "Loughborough",
    "Longitude": "-1.230407999",
    "Latitude": "52.773846121"
  },
  {
    "StopPointRef": "260007364",
    "CommonName": "Burns Road",
    "Indicator": "opp",
    "LocalityName": "Loughborough",
    "Longitude": "-1.230408084",
    "Latitude": "52.773846088"
  },
  {
    "StopPointRef": "260007453",
    "CommonName": "Butterley Drive",
    "Indicator": "adj",
    "LocalityName": "Loughborough",
    "Longitude": "-1.249423154",
    "Latitude": "52.764468640"
  },
  {
    "StopPointRef": "260007384",
    "CommonName": "Charnwood College",
    "Indicator": "adj",
    "LocalityName": "Loughborough",
    "Longitude": "-1.239076635",
    "Latitude": "52.770404837"
  },
  {
    "StopPointRef": "260007385",
    "CommonName": "Charnwood College",
    "Indicator": "opp",
    "LocalityName": "Loughborough",
    "Longitude": "-1.239073322",
    "Latitude": "52.769758505"
  },
  {
    "StopPointRef": "260007359",
    "CommonName": "Cross Hill Lane",
    "Indicator": "opp",
    "LocalityName": "Loughborough",
    "Longitude": "-1.217328841",
    "Latitude": "52.757788635"
  },
  {
    "StopPointRef": "260007372",
    "CommonName": "Deane Street",
    "Indicator": "adj",
    "LocalityName": "Loughborough",
    "Longitude": "-1.225262702",
    "Latitude": "52.775260565"
  },
  {
    "StopPointRef": "260007362",
    "CommonName": "Deane Street",
    "Indicator": "opp",
    "LocalityName": "Loughborough",
    "Longitude": "-1.225672263",
    "Latitude": "52.775185819"
  },
  {
    "StopPointRef": "260007363",
    "CommonName": "Epinal Way",
    "Indicator": "opposite",
    "LocalityName": "Loughborough",
    "Longitude": "-1.227473146",
    "Latitude": "52.774788536"
  },
  {
    "StopPointRef": "260007371",
    "CommonName": "Epinal Way",
    "Indicator": "outside",
    "LocalityName": "Loughborough",
    "Longitude": "-1.227280247",
    "Latitude": "52.774837965"
  },
  {
    "StopPointRef": "260007271",
    "CommonName": "Farndale Drive",
    "Indicator": "opp",
    "LocalityName": "Loughborough",
    "Longitude": "-1.219957048",
    "Latitude": "52.754553329"
  },
  {
    "StopPointRef": "260007272",
    "CommonName": "Farnham Road",
    "Indicator": "SE Bound",
    "LocalityName": "Loughborough",
    "Longitude": "-1.202458570",
    "Latitude": "52.756178641"
  },
  {
    "StopPointRef": "260007368",
    "CommonName": "Garendon Road",
    "Indicator": "outside",
    "LocalityName": "Loughborough",
    "Longitude": "-1.234451011",
    "Latitude": "52.772297508"
  },
  {
    "StopPointRef": "260007444",
    "CommonName": "Grassholme Drive",
    "Indicator": "opp",
    "LocalityName": "Loughborough",
    "Longitude": "-1.250364609",
    "Latitude": "52.766031436"
  },
  {
    "StopPointRef": "260070060",
    "CommonName": "Green",
    "Indicator": "opp",
    "LocalityName": "Loughborough",
    "Longitude": "-1.246490247",
    "Latitude": "52.764040329"
  },
  {
    "StopPointRef": "260007469",
    "CommonName": "Hermitage Road",
    "Indicator": "adj",
    "LocalityName": "Loughborough",
    "Longitude": "-1.248111729",
    "Latitude": "52.763073651"
  },
  {
    "StopPointRef": "260080201",
    "CommonName": "Herrick Road",
    "Indicator": "adj",
    "LocalityName": "Loughborough",
    "Longitude": "-1.211637182",
    "Latitude": "52.762610634"
  },
  {
    "StopPointRef": "260007426",
    "CommonName": "Jitty",
    "Indicator": "opp",
    "LocalityName": "Loughborough",
    "Longitude": "-1.244257683",
    "Latitude": "52.764085813"
  },
  {
    "StopPointRef": "260070063",
    "CommonName": "Lingdale Close",
    "Indicator": "adj",
    "LocalityName": "Loughborough",
    "Longitude": "-1.207326631",
    "Latitude": "52.758326569"
  },
  {
    "StopPointRef": "260007438",
    "CommonName": "Manor Road",
    "Indicator": "adj",
    "LocalityName": "Loughborough",
    "Longitude": "-1.202364949",
    "Latitude": "52.755292150"
  },
  {
    "StopPointRef": "260070064",
    "CommonName": "Maple Road South",
    "Indicator": "opp",
    "LocalityName": "Loughborough",
    "Longitude": "-1.205359881",
    "Latitude": "52.751212312"
  },
  {
    "StopPointRef": "260070066",
    "CommonName": "Poplar Road",
    "Indicator": "adj",
    "LocalityName": "Loughborough",
    "Longitude": "-1.209450451",
    "Latitude": "52.753170230"
  },
  {
    "StopPointRef": "260007452",
    "CommonName": "Redmires Close",
    "Indicator": "opp",
    "LocalityName": "Loughborough",
    "Longitude": "-1.247087499",
    "Latitude": "52.767371349"
  },
  {
    "StopPointRef": "260070062",
    "CommonName": "Rivington Drive",
    "Indicator": "adj",
    "LocalityName": "Loughborough",
    "Longitude": "-1.244352733",
    "Latitude": "52.765927114"
  },
  {
    "StopPointRef": "260007367",
    "CommonName": "Rupert Brooke Road",
    "Indicator": "adj",
    "LocalityName": "Loughborough",
    "Longitude": "-1.237152197",
    "Latitude": "52.772280257"
  },
  {
    "StopPointRef": "260007366",
    "CommonName": "Rupert Brooke Road",
    "Indicator": "opp",
    "LocalityName": "Loughborough",
    "Longitude": "-1.236135582",
    "Latitude": "52.772237046"
  },
  {
    "StopPointRef": "260007273",
    "CommonName": "Sharpley Road",
    "Indicator": "SE Bound",
    "LocalityName": "Loughborough",
    "Longitude": "-1.244240749",
    "Latitude": "52.765014131"
  },
  {
    "StopPointRef": "260007349",
    "CommonName": "Shops",
    "Indicator": "adj",
    "LocalityName": "Loughborough",
    "Longitude": "-1.240548999",
    "Latitude": "52.765856220"
  },
  {
    "StopPointRef": "260007369",
    "CommonName": "Tennyson Road",
    "Indicator": "adj",
    "LocalityName": "Loughborough",
    "Longitude": "-1.231685596",
    "Latitude": "52.773312499"
  },
  {
    "StopPointRef": "260007365",
    "CommonName": "Tennyson Road",
    "Indicator": "opp",
    "LocalityName": "Loughborough",
    "Longitude": "-1.231986519",
    "Latitude": "52.773169546"
  },
  {
    "StopPointRef": "260007338",
    "CommonName": "Tesco",
    "Indicator": "opp",
    "LocalityName": "Loughborough",
    "Longitude": "-1.207326631",
    "Latitude": "52.758326569"
  },
  {
    "StopPointRef": "260007374",
    "CommonName": "Tyler Avenue",
    "Indicator": "adj",
    "LocalityName": "Loughborough",
    "Longitude": "-1.218451561",
    "Latitude": "52.776565531"
  },
  {
    "StopPointRef": "260007360",
    "CommonName": "Tyler Avenue",
    "Indicator": "opp",
    "LocalityName": "Loughborough",
    "Longitude": "-1.218109023",
    "Latitude": "52.776691291"
  },
  {
    "StopPointRef": "260070065",
    "CommonName": "Walnut Road",
    "Indicator": "before",
    "LocalityName": "Loughborough",
    "Longitude": "-1.207772618",
    "Latitude": "52.753201593"
  },
  {
    "StopPointRef": "260007324",
    "CommonName": "Windleden Road",
    "Indicator": "adj",
    "LocalityName": "Loughborough",
    "Longitude": "-1.246451665",
    "Latitude": "52.765061977"
  },
  {
    "StopPointRef": "109000022116",
    "CommonName": "Bembridge Drive Top",
    "Indicator": "NW-bound",
    "LocalityName": "Alvaston",
    "Longitude": "-1.415390824",
    "Latitude": "52.888662232"
  },
  {
    "StopPointRef": "109000022117",
    "CommonName": "Bembridge Drive Top",
    "Indicator": "SE-bound",
    "LocalityName": "Alvaston",
    "Longitude": "-1.416307939",
    "Latitude": "52.889064933"
  },
  {
    "StopPointRef": "1090DASR3618",
    "CommonName": "Blue Peter",
    "Indicator": "Adj",
    "LocalityName": "Alvaston",
    "Longitude": "-1.428004744",
    "Latitude": "52.895993510"
  },
  {
    "StopPointRef": "1090DASB3619",
    "CommonName": "Blue Peter",
    "Indicator": "opp",
    "LocalityName": "Alvaston",
    "Longitude": "-1.427882668",
    "Latitude": "52.896245109"
  },
  {
    "StopPointRef": "109000009914",
    "CommonName": "Lindon Drive",
    "Indicator": "adj",
    "LocalityName": "Alvaston",
    "Longitude": "-1.418989714",
    "Latitude": "52.889999839"
  },
  {
    "StopPointRef": "109000009915",
    "CommonName": "Lindon Drive",
    "Indicator": "opp",
    "LocalityName": "Alvaston",
    "Longitude": "-1.420985432",
    "Latitude": "52.890842335"
  },
  {
    "StopPointRef": "109000009909",
    "CommonName": "Nunsfield Drive",
    "Indicator": "Adj",
    "LocalityName": "Alvaston",
    "Longitude": "-1.425760643",
    "Latitude": "52.893964329"
  },
  {
    "StopPointRef": "109000009908",
    "CommonName": "Nunsfield Drive",
    "Indicator": "Opp",
    "LocalityName": "Alvaston",
    "Longitude": "-1.426565487",
    "Latitude": "52.894880519"
  },
  {
    "StopPointRef": "109000009879",
    "CommonName": "The Lodge",
    "Indicator": "Adj",
    "LocalityName": "Alvaston",
    "Longitude": "-1.423986016",
    "Latitude": "52.892480579"
  },
  {
    "StopPointRef": "109000009878",
    "CommonName": "The Lodge",
    "Indicator": "Opp",
    "LocalityName": "Alvaston",
    "Longitude": "-1.423308857",
    "Latitude": "52.892201859"
  },
  {
    "StopPointRef": "109000009905",
    "CommonName": "Wye Street",
    "Indicator": "Adj",
    "LocalityName": "Alvaston",
    "Longitude": "-1.430537431",
    "Latitude": "52.897579702"
  },
  {
    "StopPointRef": "109000009906",
    "CommonName": "Wye Street",
    "Indicator": "opp",
    "LocalityName": "Alvaston",
    "Longitude": "-1.431740287",
    "Latitude": "52.897812597"
  },
  {
    "StopPointRef": "269033004",
    "CommonName": "Corporation Road",
    "Indicator": "adj",
    "LocalityName": "Belgrave",
    "Longitude": "-1.134529994",
    "Latitude": "52.656958290"
  },
  {
    "StopPointRef": "269033005",
    "CommonName": "Corporation Road",
    "Indicator": "opp",
    "LocalityName": "Belgrave",
    "Longitude": "-1.134397235",
    "Latitude": "52.657272329"
  },
  {
    "StopPointRef": "269033002",
    "CommonName": "Thurcaston Road",
    "Indicator": "adj",
    "LocalityName": "Belgrave",
    "Longitude": "-1.131995841",
    "Latitude": "52.660937330"
  },
  {
    "StopPointRef": "269033007",
    "CommonName": "Thurcaston Road",
    "Indicator": "opp",
    "LocalityName": "Belgrave",
    "Longitude": "-1.132381958",
    "Latitude": "52.660799636"
  },
  {
    "StopPointRef": "260006503",
    "CommonName": "Greengate Lane",
    "Indicator": "adj",
    "LocalityName": "Birstall",
    "Longitude": "-1.125739486",
    "Latitude": "52.681284443"
  },
  {
    "StopPointRef": "260006506",
    "CommonName": "Greengate Lane",
    "Indicator": "opp",
    "LocalityName": "Birstall",
    "Longitude": "-1.196527722",
    "Latitude": "52.762494698"
  },
  {
    "StopPointRef": "260006547",
    "CommonName": "Red Hill Circle",
    "Indicator": "N Bound",
    "LocalityName": "Birstall",
    "Longitude": "-1.129240542",
    "Latitude": "52.665630025"
  },
  {
    "StopPointRef": "260006511",
    "CommonName": "Red Hill Circle",
    "Indicator": "S Bound",
    "LocalityName": "Birstall",
    "Longitude": "-1.129190270",
    "Latitude": "52.666022415"
  },
  {
    "StopPointRef": "260013603",
    "CommonName": "Bus Station",
    "Indicator": "Stand A",
    "LocalityName": "Castle Donington",
    "Longitude": "-1.341270638",
    "Latitude": "52.840562165"
  },
  {
    "StopPointRef": "260013650",
    "CommonName": "Bus Station",
    "Indicator": "Stand B",
    "LocalityName": "Castle Donington",
    "Longitude": "-1.341366695",
    "Latitude": "52.840635601"
  },
  {
    "StopPointRef": "260013626",
    "CommonName": "Donington Park",
    "Indicator": "opposite",
    "LocalityName": "Castle Donington",
    "Longitude": "-1.360816177",
    "Latitude": "52.828411286"
  },
  {
    "StopPointRef": "260013625",
    "CommonName": "Donington Park",
    "Indicator": "outside",
    "LocalityName": "Castle Donington",
    "Longitude": "-1.360832186",
    "Latitude": "52.828406063"
  },
  {
    "StopPointRef": "260013616",
    "CommonName": "Gasny Avenue",
    "Indicator": "adj",
    "LocalityName": "Castle Donington",
    "Longitude": "-1.335604619",
    "Latitude": "52.850802368"
  },
  {
    "StopPointRef": "260013617",
    "CommonName": "Gasny Avenue",
    "Indicator": "opp",
    "LocalityName": "Castle Donington",
    "Longitude": "-1.335512029",
    "Latitude": "52.851023678"
  },
  {
    "StopPointRef": "260013602",
    "CommonName": "High Street",
    "Indicator": "Northbound",
    "LocalityName": "Castle Donington",
    "Longitude": "-1.344311959",
    "Latitude": "52.837813498"
  },
  {
    "StopPointRef": "260013612",
    "CommonName": "High Street",
    "Indicator": "Southbound",
    "LocalityName": "Castle Donington",
    "Longitude": "-1.344133116",
    "Latitude": "52.837961232"
  },
  {
    "StopPointRef": "260013600",
    "CommonName": "Nags Head",
    "Indicator": "adj",
    "LocalityName": "Castle Donington",
    "Longitude": "-1.347320633",
    "Latitude": "52.834373208"
  },
  {
    "StopPointRef": "260013601",
    "CommonName": "Nags Head",
    "Indicator": "opp",
    "LocalityName": "Castle Donington",
    "Longitude": "-1.347655502",
    "Latitude": "52.834000400"
  },
  {
    "StopPointRef": "260013629",
    "CommonName": "Newbold Drive",
    "Indicator": "adj",
    "LocalityName": "Castle Donington",
    "Longitude": "-1.336387892",
    "Latitude": "52.849106343"
  },
  {
    "StopPointRef": "260013619",
    "CommonName": "The Lamb",
    "Indicator": "adj",
    "LocalityName": "Castle Donington",
    "Longitude": "-1.337115989",
    "Latitude": "52.846002010"
  },
  {
    "StopPointRef": "260013614",
    "CommonName": "The Lamb",
    "Indicator": "opp",
    "LocalityName": "Castle Donington",
    "Longitude": "-1.337110023",
    "Latitude": "52.846048576"
  },
  {
    "StopPointRef": "260013615",
    "CommonName": "Trent Lane",
    "Indicator": "adj",
    "LocalityName": "Castle Donington",
    "Longitude": "-1.336715722",
    "Latitude": "52.848444104"
  },
  {
    "StopPointRef": "260013632",
    "CommonName": "Willow Farm Business Park",
    "Indicator": "adj",
    "LocalityName": "Castle Donington",
    "Longitude": "-1.334431006",
    "Latitude": "52.853975044"
  },
  {
    "StopPointRef": "260013633",
    "CommonName": "Willow Farm Business Park",
    "Indicator": "opp",
    "LocalityName": "Castle Donington",
    "Longitude": "-1.334379600",
    "Latitude": "52.854112432"
  },
  {
    "StopPointRef": "260013624",
    "CommonName": "Back Lane",
    "Indicator": "adj",
    "LocalityName": "Cavendish Bridge",
    "Longitude": "-1.335858054",
    "Latitude": "52.864443542"
  },
  {
    "StopPointRef": "260080049",
    "CommonName": "Back Lane",
    "Indicator": "opp",
    "LocalityName": "Cavendish Bridge",
    "Longitude": "-1.335606170",
    "Latitude": "52.864337867"
  },
  {
    "StopPointRef": "260080066",
    "CommonName": "Donington Lane",
    "Indicator": "adj",
    "LocalityName": "Cavendish Bridge",
    "Longitude": "-1.331400928",
    "Latitude": "52.862963030"
  },
  {
    "StopPointRef": "260080060",
    "CommonName": "Donington Lane",
    "Indicator": "opp",
    "LocalityName": "Cavendish Bridge",
    "Longitude": "-1.331402083",
    "Latitude": "52.862963199"
  },
  {
    "StopPointRef": "109000009403",
    "CommonName": "Meadow Lane",
    "Indicator": "Adj",
    "LocalityName": "Crewton",
    "Longitude": "-1.438589396",
    "Latitude": "52.902118468"
  },
  {
    "StopPointRef": "109000009402",
    "CommonName": "Meadow Lane",
    "Indicator": "Opp",
    "LocalityName": "Crewton",
    "Longitude": "-1.439164634",
    "Latitude": "52.902411576"
  },
  {
    "StopPointRef": "109000009907",
    "CommonName": "Spencer Street",
    "Indicator": "Opp",
    "LocalityName": "Crewton",
    "Longitude": "-1.435338935",
    "Latitude": "52.900067534"
  },
  {
    "StopPointRef": "109000009856",
    "CommonName": "Wisgreaves Road",
    "Indicator": "Adj",
    "LocalityName": "Crewton",
    "Longitude": "-1.436615013",
    "Latitude": "52.900908265"
  },
  {
    "StopPointRef": "109000009374",
    "CommonName": "Bloomfield Street",
    "Indicator": "Adj",
    "LocalityName": "Derby",
    "Longitude": "-1.464861258",
    "Latitude": "52.913506659"
  },
  {
    "StopPointRef": "109000009373",
    "CommonName": "Bloomfield Street",
    "Indicator": "Opp",
    "LocalityName": "Derby",
    "Longitude": "-1.464839977",
    "Latitude": "52.913493432"
  },
  {
    "StopPointRef": "1090BSTN08",
    "CommonName": "Bus Station",
    "Indicator": "Bay 8",
    "LocalityName": "Derby",
    "Longitude": "-1.471801530",
    "Latitude": "52.921889933"
  },
  {
    "StopPointRef": "109000009369",
    "CommonName": "Calvert Street",
    "Indicator": "Adj",
    "LocalityName": "Derby",
    "Longitude": "-1.463970185",
    "Latitude": "52.918176416"
  },
  {
    "StopPointRef": "109000009370",
    "CommonName": "Calvert Street",
    "Indicator": "Opp",
    "LocalityName": "Derby",
    "Longitude": "-1.463970122",
    "Latitude": "52.918283708"
  },
  {
    "StopPointRef": "109052310",
    "CommonName": "Copeland Street",
    "Indicator": "adj",
    "LocalityName": "Derby",
    "Longitude": "-1.468940831",
    "Latitude": "52.920402256"
  },
  {
    "StopPointRef": "109052312",
    "CommonName": "Copeland Street",
    "Indicator": "opp",
    "LocalityName": "Derby",
    "Longitude": "-1.473042387",
    "Latitude": "52.921696197"
  },
  {
    "StopPointRef": "109000009302",
    "CommonName": "Midland Road",
    "Indicator": "Adj",
    "LocalityName": "Derby",
    "Longitude": "-1.466659854",
    "Latitude": "52.914676491"
  },
  {
    "StopPointRef": "109000009300",
    "CommonName": "Midland Road",
    "Indicator": "NE-bound",
    "LocalityName": "Derby",
    "Longitude": "-1.466367721",
    "Latitude": "52.915128455"
  },
  {
    "StopPointRef": "109000022150",
    "CommonName": "Morledge",
    "Indicator": "Stop C1",
    "LocalityName": "Derby",
    "Longitude": "-1.473042387",
    "Latitude": "52.921696197"
  },
  {
    "StopPointRef": "1090DDRS1339",
    "CommonName": "Railway Station",
    "Indicator": "Stop S1",
    "LocalityName": "Derby",
    "Longitude": "-1.463842394",
    "Latitude": "52.916113199"
  },
  {
    "StopPointRef": "109000009371",
    "CommonName": "Railway Station",
    "Indicator": "Stop S2",
    "LocalityName": "Derby",
    "Longitude": "-1.464116520",
    "Latitude": "52.915924644"
  },
  {
    "StopPointRef": "260013636",
    "CommonName": "Building 100",
    "Indicator": "opp",
    "LocalityName": "East Mids Airport",
    "Longitude": "-1.322457158",
    "Latitude": "52.826654070"
  },
  {
    "StopPointRef": "260013637",
    "CommonName": "Building 100",
    "Indicator": "outside",
    "LocalityName": "East Mids Airport",
    "Longitude": "-1.322379689",
    "Latitude": "52.826655640"
  },
  {
    "StopPointRef": "260013646",
    "CommonName": "Coach Park",
    "Indicator": "Bay A",
    "LocalityName": "East Mids Airport",
    "Longitude": "-1.328230539",
    "Latitude": "52.826284907"
  },
  {
    "StopPointRef": "260018563",
    "CommonName": "Coach Park",
    "Indicator": "Bay B",
    "LocalityName": "East Mids Airport",
    "Longitude": "-1.328088761",
    "Latitude": "52.826299728"
  },
  {
    "StopPointRef": "260013635",
    "CommonName": "DHL Cargo East",
    "Indicator": "adj",
    "LocalityName": "East Mids Airport",
    "Longitude": "-1.316173921",
    "Latitude": "52.826768470"
  },
  {
    "StopPointRef": "260013634",
    "CommonName": "DHL Cargo East",
    "Indicator": "opp",
    "LocalityName": "East Mids Airport",
    "Longitude": "-1.314586416",
    "Latitude": "52.826767709"
  },
  {
    "StopPointRef": "260080173",
    "CommonName": "DHL Cargo West Extension",
    "Indicator": "adj",
    "LocalityName": "East Mids Airport",
    "Longitude": "-1.354664891",
    "Latitude": "52.825155711"
  },
  {
    "StopPointRef": "260014801",
    "CommonName": "DHL Cargo West Extension",
    "Indicator": "opp",
    "LocalityName": "East Mids Airport",
    "Longitude": "-1.354124284",
    "Latitude": "52.825067026"
  },
  {
    "StopPointRef": "260013631",
    "CommonName": "DHL Cargo West",
    "Indicator": "adj",
    "LocalityName": "East Mids Airport",
    "Longitude": "-1.350260602",
    "Latitude": "52.824558136"
  },
  {
    "StopPointRef": "260013630",
    "CommonName": "DHL Cargo West",
    "Indicator": "opp",
    "LocalityName": "East Mids Airport",
    "Longitude": "-1.350155618",
    "Latitude": "52.824544949"
  },
  {
    "StopPointRef": "260070010",
    "CommonName": "EMA Departure Building",
    "Indicator": "adj",
    "LocalityName": "East Mids Airport",
    "Longitude": "-1.331005670",
    "Latitude": "52.824914476"
  },
  {
    "StopPointRef": "260013640",
    "CommonName": "EMA Departure Building",
    "Indicator": "opp",
    "LocalityName": "East Mids Airport",
    "Longitude": "-1.331555640",
    "Latitude": "52.824916682"
  },
  {
    "StopPointRef": "260013639",
    "CommonName": "Maintenance Area",
    "Indicator": "adj",
    "LocalityName": "East Mids Airport",
    "Longitude": "-1.338267344",
    "Latitude": "52.823648059"
  },
  {
    "StopPointRef": "260013638",
    "CommonName": "Maintenance Area",
    "Indicator": "outside",
    "LocalityName": "East Mids Airport",
    "Longitude": "-1.338327262",
    "Latitude": "52.823671281"
  },
  {
    "StopPointRef": "260014629",
    "CommonName": "Pegasus Business Park",
    "Indicator": "adj",
    "LocalityName": "East Mids Airport",
    "Longitude": "-1.312094040",
    "Latitude": "52.825104482"
  },
  {
    "StopPointRef": "260014628",
    "CommonName": "Pegasus Business Park",
    "Indicator": "opp",
    "LocalityName": "East Mids Airport",
    "Longitude": "-1.312274397",
    "Latitude": "52.825040023"
  },
  {
    "StopPointRef": "260014500",
    "CommonName": "Thistle Hotel",
    "Indicator": "opp",
    "LocalityName": "East Mids Airport",
    "Longitude": "-1.325858450",
    "Latitude": "52.825778964"
  },
  {
    "StopPointRef": "260013627",
    "CommonName": "Training Centre",
    "Indicator": "opp",
    "LocalityName": "East Mids Airport",
    "Longitude": "-1.335043080",
    "Latitude": "52.823354234"
  },
  {
    "StopPointRef": "260013628",
    "CommonName": "Training Centre",
    "Indicator": "outside",
    "LocalityName": "East Mids Airport",
    "Longitude": "-1.334965897",
    "Latitude": "52.823381446"
  },
  {
    "StopPointRef": "260008004",
    "CommonName": "Interchange",
    "Indicator": "Stand 1",
    "LocalityName": "East Mids Gateway",
    "Longitude": "-1.300376936",
    "Latitude": "52.833486928"
  },
  {
    "StopPointRef": "260008001",
    "CommonName": "Interchange",
    "Indicator": "Stand 2",
    "LocalityName": "East Mids Gateway",
    "Longitude": "-1.300258396",
    "Latitude": "52.833711019"
  },
  {
    "StopPointRef": "260007004",
    "CommonName": "Anchor Inn",
    "Indicator": "opp",
    "LocalityName": "Hathern",
    "Longitude": "-1.256537240",
    "Latitude": "52.792635759"
  },
  {
    "StopPointRef": "260007001",
    "CommonName": "Anchor Inn",
    "Indicator": "outside",
    "LocalityName": "Hathern",
    "Longitude": "-1.255529983",
    "Latitude": "52.792282670"
  },
  {
    "StopPointRef": "260007003",
    "CommonName": "Edward Phillipps Road",
    "Indicator": "opp",
    "LocalityName": "Hathern",
    "Longitude": "-1.253223718",
    "Latitude": "52.791267335"
  },
  {
    "StopPointRef": "260007002",
    "CommonName": "Edward Phillipps Road",
    "Indicator": "outside",
    "LocalityName": "Hathern",
    "Longitude": "-1.253029627",
    "Latitude": "52.791149751"
  },
  {
    "StopPointRef": "260007005",
    "CommonName": "Shepshed Road",
    "Indicator": "adj",
    "LocalityName": "Hathern",
    "Longitude": "-1.260358152",
    "Latitude": "52.795985137"
  },
  {
    "StopPointRef": "260007000",
    "CommonName": "Shepshed Road",
    "Indicator": "opp",
    "LocalityName": "Hathern",
    "Longitude": "-1.260248672",
    "Latitude": "52.795756647"
  },
  {
    "StopPointRef": "260014408",
    "CommonName": "Church",
    "Indicator": "opposite",
    "LocalityName": "Kegworth",
    "Longitude": "-1.277911487",
    "Latitude": "52.835404664"
  },
  {
    "StopPointRef": "260014407",
    "CommonName": "Church",
    "Indicator": "outside",
    "LocalityName": "Kegworth",
    "Longitude": "-1.277546310",
    "Latitude": "52.835257486"
  },
  {
    "StopPointRef": "260014402",
    "CommonName": "Packington Hill",
    "Indicator": "adj",
    "LocalityName": "Kegworth",
    "Longitude": "-1.283621428",
    "Latitude": "52.835821994"
  },
  {
    "StopPointRef": "260014403",
    "CommonName": "Packington Hill",
    "Indicator": "opp",
    "LocalityName": "Kegworth",
    "Longitude": "-1.281665229",
    "Latitude": "52.835821483"
  },
  {
    "StopPointRef": "260014400",
    "CommonName": "Suthers Road",
    "Indicator": "adjacent",
    "LocalityName": "Kegworth",
    "Longitude": "-1.288960648",
    "Latitude": "52.836029908"
  },
  {
    "StopPointRef": "260014401",
    "CommonName": "Suthers Road",
    "Indicator": "opp",
    "LocalityName": "Kegworth",
    "Longitude": "-1.288982540",
    "Latitude": "52.836030804"
  },
  {
    "StopPointRef": "260014422",
    "CommonName": "Whatton Road",
    "Indicator": "opposite",
    "LocalityName": "Kegworth",
    "Longitude": "-1.277358506",
    "Latitude": "52.833370630"
  },
  {
    "StopPointRef": "269030091",
    "CommonName": "St Margaret's Bus Station",
    "Indicator": "Stand SV",
    "LocalityName": "Leicester",
    "Longitude": "-1.134529994",
    "Latitude": "52.656958290"
  },
  {
    "StopPointRef": "109000009348",
    "CommonName": "Brunel House",
    "Indicator": "Adj",
    "LocalityName": "Litchurch",
    "Longitude": "-1.459595226",
    "Latitude": "52.910308548"
  },
  {
    "StopPointRef": "1090DDMC1306",
    "CommonName": "Brunel House",
    "Indicator": "Opp",
    "LocalityName": "Litchurch",
    "Longitude": "-1.459763137",
    "Latitude": "52.910407123"
  },
  {
    "StopPointRef": "109000009350",
    "CommonName": "Railway Technical Centre",
    "Indicator": "Adj",
    "LocalityName": "Litchurch",
    "Longitude": "-1.456789466",
    "Latitude": "52.908678734"
  },
  {
    "StopPointRef": "109000009349",
    "CommonName": "Railway Technical Centre",
    "Indicator": "Opp",
    "LocalityName": "Litchurch",
    "Longitude": "-1.457543837",
    "Latitude": "52.909115545"
  },
  {
    "StopPointRef": "260007200",
    "CommonName": "Bishop Meadow Road",
    "Indicator": "adj",
    "LocalityName": "Loughborough",
    "Longitude": "-1.228683027",
    "Latitude": "52.782986739"
  },
  {
    "StopPointRef": "260007212",
    "CommonName": "High Street",
    "Indicator": "Stand HB",
    "LocalityName": "Loughborough",
    "Longitude": "-1.205252036",
    "Latitude": "52.771559943"
  },
  {
    "StopPointRef": "260007333",
    "CommonName": "Lemyngton Street",
    "Indicator": "Stand LA",
    "LocalityName": "Loughborough",
    "Longitude": "-1.204251972",
    "Latitude": "52.773350679"
  },
  {
    "StopPointRef": "260007484",
    "CommonName": "Pear Tree View",
    "Indicator": "adjacent",
    "LocalityName": "Loughborough",
    "Longitude": "-1.241029460",
    "Latitude": "52.785339805"
  },
  {
    "StopPointRef": "260007483",
    "CommonName": "Pear Tree View",
    "Indicator": "opp",
    "LocalityName": "Loughborough",
    "Longitude": "-1.240377703",
    "Latitude": "52.785183994"
  },
  {
    "StopPointRef": "100000022068",
    "CommonName": "Cavendish Bridge",
    "Indicator": "Adj",
    "LocalityName": "Shardlow",
    "Longitude": "-1.339149123",
    "Latitude": "52.865804752"
  },
  {
    "StopPointRef": "100000022069",
    "CommonName": "Cavendish Bridge",
    "Indicator": "Opp",
    "LocalityName": "Shardlow",
    "Longitude": "-1.339092639",
    "Latitude": "52.865778884"
  },
  {
    "StopPointRef": "100000022060",
    "CommonName": "Cheal Close",
    "Indicator": "adj",
    "LocalityName": "Shardlow",
    "Longitude": "-1.363545300",
    "Latitude": "52.870990945"
  },
  {
    "StopPointRef": "1000DSSR5097",
    "CommonName": "Cheal Close",
    "Indicator": "opp",
    "LocalityName": "Shardlow",
    "Longitude": "-1.363141278",
    "Latitude": "52.871027552"
  },
  {
    "StopPointRef": "100000022072",
    "CommonName": "Clock Warehouse",
    "Indicator": "Adj",
    "LocalityName": "Shardlow",
    "Longitude": "-1.347733666",
    "Latitude": "52.868613084"
  },
  {
    "StopPointRef": "100000022071",
    "CommonName": "Clock Warehouse",
    "Indicator": "Opp",
    "LocalityName": "Shardlow",
    "Longitude": "-1.348397820",
    "Latitude": "52.868680806"
  },
  {
    "StopPointRef": "100000022066",
    "CommonName": "Dog and Duck",
    "Indicator": "Adj",
    "LocalityName": "Shardlow",
    "Longitude": "-1.356959184",
    "Latitude": "52.869943209"
  },
  {
    "StopPointRef": "1000DSLR5101",
    "CommonName": "Dog and Duck",
    "Indicator": "Opp",
    "LocalityName": "Shardlow",
    "Longitude": "-1.355575094",
    "Latitude": "52.869364210"
  },
  {
    "StopPointRef": "100052586",
    "CommonName": "Glebe Farm",
    "Indicator": "Adj",
    "LocalityName": "Shardlow",
    "Longitude": "-1.372871069",
    "Latitude": "52.874814142"
  },
  {
    "StopPointRef": "100052584",
    "CommonName": "Glebe Farm",
    "Indicator": "Opp",
    "LocalityName": "Shardlow",
    "Longitude": "-1.372879162",
    "Latitude": "52.874818227"
  },
  {
    "StopPointRef": "1000DSLR5104",
    "CommonName": "Navigation Inn",
    "Indicator": "Adj",
    "LocalityName": "Shardlow",
    "Longitude": "-1.343090511",
    "Latitude": "52.868055448"
  },
  {
    "StopPointRef": "1000DSLR5105",
    "CommonName": "Navigation Inn",
    "Indicator": "opp",
    "LocalityName": "Shardlow",
    "Longitude": "-1.343134210",
    "Latitude": "52.868066588"
  },
  {
    "StopPointRef": "1000DSSR5098",
    "CommonName": "Primary School",
    "Indicator": "adj",
    "LocalityName": "Shardlow",
    "Longitude": "-1.359957178",
    "Latitude": "52.871082967"
  },
  {
    "StopPointRef": "1000DSSR5099",
    "CommonName": "Primary School",
    "Indicator": "opp",
    "LocalityName": "Shardlow",
    "Longitude": "-1.360350694",
    "Latitude": "52.871114947"
  },
  {
    "StopPointRef": "1000DSLR5102",
    "CommonName": "Shakespeare Inn",
    "Indicator": "adj",
    "LocalityName": "Shardlow",
    "Longitude": "-1.352003672",
    "Latitude": "52.868910724"
  },
  {
    "StopPointRef": "1000DSLR1651",
    "CommonName": "Shakespeare Inn",
    "Indicator": "opp",
    "LocalityName": "Shardlow",
    "Longitude": "-1.353709861",
    "Latitude": "52.868789303"
  },
  {
    "StopPointRef": "1000DTSR5094",
    "CommonName": "Elvaston Castle Gates",
    "Indicator": "Adj",
    "LocalityName": "Thulston",
    "Longitude": "-1.398353964",
    "Latitude": "52.881891044"
  },
  {
    "StopPointRef": "100000008664",
    "CommonName": "Elvaston Castle Gates",
    "Indicator": "Opp",
    "LocalityName": "Thulston",
    "Longitude": "-1.398669688",
    "Latitude": "52.882025013"
  },
  {
    "StopPointRef": "1000DTSR5095",
    "CommonName": "Elvaston Lane End",
    "Indicator": "Adj",
    "LocalityName": "Thulston",
    "Longitude": "-1.391175658",
    "Latitude": "52.880021137"
  },
  {
    "StopPointRef": "1000DTSR5096",
    "CommonName": "Elvaston Lane End",
    "Indicator": "Opp",
    "LocalityName": "Thulston",
    "Longitude": "-1.391900339",
    "Latitude": "52.880180696"
  },
  {
    "StopPointRef": "1000DTSR5093",
    "CommonName": "Shardlow Road",
    "Indicator": "NW-bound",
    "LocalityName": "Thulston",
    "Longitude": "-1.410221082",
    "Latitude": "52.886547429"
  },
  {
    "StopPointRef": "1000DTSR5092",
    "CommonName": "Shardlow Road",
    "Indicator": "SE-bound",
    "LocalityName": "Thulston",
    "Longitude": "-1.409514246",
    "Latitude": "52.886311917"
  },
  {
    "StopPointRef": "109000009401",
    "CommonName": "Alvaston Park",
    "Indicator": "Adj",
    "LocalityName": "Wilmorton",
    "Longitude": "-1.442807806",
    "Latitude": "52.903432752"
  },
  {
    "StopPointRef": "109000009400",
    "CommonName": "Alvaston Park",
    "Indicator": "Opp",
    "LocalityName": "Wilmorton",
    "Longitude": "-1.443706395",
    "Latitude": "52.903661045"
  },
  {
    "StopPointRef": "109000009399",
    "CommonName": "Ascot Drive",
    "Indicator": "Adj",
    "LocalityName": "Wilmorton",
    "Longitude": "-1.450140887",
    "Latitude": "52.905968097"
  },
  {
    "StopPointRef": "109000009398",
    "CommonName": "Ascot Drive",
    "Indicator": "Opp",
    "LocalityName": "Wilmorton",
    "Longitude": "-1.449935611",
    "Latitude": "52.905902412"
  },
  {
    "StopPointRef": "109054482",
    "CommonName": "Conference Centre",
    "Indicator": "Adj",
    "LocalityName": "Wilmorton",
    "Longitude": "-1.447313622",
    "Latitude": "52.904775199"
  },
  {
    "StopPointRef": "109000009351",
    "CommonName": "Deadmans Lane",
    "Indicator": "Adj",
    "LocalityName": "Wilmorton",
    "Longitude": "-1.453541186",
    "Latitude": "52.907283365"
  },
  {
    "StopPointRef": "109000009352",
    "CommonName": "Deadmans Lane",
    "Indicator": "Opp",
    "LocalityName": "Wilmorton",
    "Longitude": "-1.452893995",
    "Latitude": "52.907030935"
  },
  {
    "StopPointRef": "3300RU0454",
    "CommonName": "Farmer Street",
    "Indicator": "adj",
    "LocalityName": "Bradmore",
    "Longitude": "-1.131569695",
    "Latitude": "52.875385158"
  },
  {
    "StopPointRef": "3300RU0453",
    "CommonName": "Farmer Street",
    "Indicator": "opp",
    "LocalityName": "Bradmore",
    "Longitude": "-1.131529694",
    "Latitude": "52.875244569"
  },
  {
    "StopPointRef": "3300RU0452",
    "CommonName": "Mill Lane",
    "Indicator": "adj",
    "LocalityName": "Bradmore",
    "Longitude": "-1.132382491",
    "Latitude": "52.877840481"
  },
  {
    "StopPointRef": "3300RU0451",
    "CommonName": "Mill Lane",
    "Indicator": "opp",
    "LocalityName": "Bradmore",
    "Longitude": "-1.132512328",
    "Latitude": "52.878045936"
  },
  {
    "StopPointRef": "3300RU0463",
    "CommonName": "Albert Road",
    "Indicator": "adj",
    "LocalityName": "Bunny",
    "Longitude": "-1.132076578",
    "Latitude": "52.864781423"
  },
  {
    "StopPointRef": "3300RU0464",
    "CommonName": "Albert Road",
    "Indicator": "opp",
    "LocalityName": "Bunny",
    "Longitude": "-1.132312272",
    "Latitude": "52.864574410"
  },
  {
    "StopPointRef": "3300RU0456",
    "CommonName": "Ash Lane",
    "Indicator": "adj",
    "LocalityName": "Bunny",
    "Longitude": "-1.142146210",
    "Latitude": "52.845185413"
  },
  {
    "StopPointRef": "3300RU0754",
    "CommonName": "Ash Lane",
    "Indicator": "opp",
    "LocalityName": "Bunny",
    "Longitude": "-1.142140289",
    "Latitude": "52.845132831"
  },
  {
    "StopPointRef": "3300RU0458",
    "CommonName": "Gotham Lane",
    "Indicator": "adj",
    "LocalityName": "Bunny",
    "Longitude": "-1.135798845",
    "Latitude": "52.857032904"
  },
  {
    "StopPointRef": "3300RU0446",
    "CommonName": "Gotham Lane",
    "Indicator": "opp",
    "LocalityName": "Bunny",
    "Longitude": "-1.136403129",
    "Latitude": "52.856588131"
  },
  {
    "StopPointRef": "3300RU0756",
    "CommonName": "Loughborough Road",
    "Indicator": "N-bound",
    "LocalityName": "Bunny",
    "Longitude": "-1.130662242",
    "Latitude": "52.868535115"
  },
  {
    "StopPointRef": "3300RU0465",
    "CommonName": "Loughborough Road",
    "Indicator": "S-bound",
    "LocalityName": "Bunny",
    "Longitude": "-1.130624985",
    "Latitude": "52.868389055"
  },
  {
    "StopPointRef": "3300RU0462",
    "CommonName": "Primary School",
    "Indicator": "adj",
    "LocalityName": "Bunny",
    "Longitude": "-1.134501546",
    "Latitude": "52.861435440"
  },
  {
    "StopPointRef": "3300RU0461",
    "CommonName": "Primary School",
    "Indicator": "opp",
    "LocalityName": "Bunny",
    "Longitude": "-1.134552449",
    "Latitude": "52.861332626"
  },
  {
    "StopPointRef": "3300RU0460",
    "CommonName": "Thomas Parkyn Close",
    "Indicator": "adj",
    "LocalityName": "Bunny",
    "Longitude": "-1.134924114",
    "Latitude": "52.859451472"
  },
  {
    "StopPointRef": "3300RU0459",
    "CommonName": "Thomas Parkyn Close",
    "Indicator": "opp",
    "LocalityName": "Bunny",
    "Longitude": "-1.134859389",
    "Latitude": "52.859031975"
  },
  {
    "StopPointRef": "3300RU0507",
    "CommonName": "Main Street",
    "Indicator": "adj",
    "LocalityName": "Costock",
    "Longitude": "-1.146563825",
    "Latitude": "52.830873667"
  },
  {
    "StopPointRef": "3300RU0506",
    "CommonName": "Main Street",
    "Indicator": "opp",
    "LocalityName": "Costock",
    "Longitude": "-1.146546166",
    "Latitude": "52.831226787"
  },
  {
    "StopPointRef": "3300RU0466",
    "CommonName": "Nottingham Road",
    "Indicator": "NE-bound",
    "LocalityName": "Costock",
    "Longitude": "-1.143186165",
    "Latitude": "52.838059344"
  },
  {
    "StopPointRef": "3300RU0755",
    "CommonName": "Nottingham Road",
    "Indicator": "SW-bound",
    "LocalityName": "Costock",
    "Longitude": "-1.143210265",
    "Latitude": "52.838022988"
  },
  {
    "StopPointRef": "260007703",
    "CommonName": "Stanford Lane",
    "Indicator": "adj",
    "LocalityName": "Cotes",
    "Longitude": "-1.177969853",
    "Latitude": "52.782202409"
  },
  {
    "StopPointRef": "260007700",
    "CommonName": "Stanford Lane",
    "Indicator": "opp",
    "LocalityName": "Cotes",
    "Longitude": "-1.178231563",
    "Latitude": "52.782058982"
  },
  {
    "StopPointRef": "260007102",
    "CommonName": "Packe Arms",
    "Indicator": "adj",
    "LocalityName": "Hoton",
    "Longitude": "-1.150577430",
    "Latitude": "52.798230791"
  },
  {
    "StopPointRef": "260007101",
    "CommonName": "Vine Tree Terrace",
    "Indicator": "adj",
    "LocalityName": "Hoton",
    "Longitude": "-1.150627563",
    "Latitude": "52.797077671"
  },
  {
    "StopPointRef": "260080151",
    "CommonName": "Vine Tree Terrace",
    "Indicator": "opp",
    "LocalityName": "Hoton",
    "Longitude": "-1.150891795",
    "Latitude": "52.797000719"
  },
  {
    "StopPointRef": "260007456",
    "CommonName": "Baxter Gate",
    "Indicator": "Stand BC",
    "LocalityName": "Loughborough",
    "Longitude": "-1.202654181",
    "Latitude": "52.770418556"
  },
  {
    "StopPointRef": "260007342",
    "CommonName": "Beacon Bingo",
    "Indicator": "opp",
    "LocalityName": "Loughborough",
    "Longitude": "-1.201912756",
    "Latitude": "52.773843628"
  },
  {
    "StopPointRef": "260007344",
    "CommonName": "Brush Works",
    "Indicator": "adj",
    "LocalityName": "Loughborough",
    "Longitude": "-1.194229700",
    "Latitude": "52.779942011"
  },
  {
    "StopPointRef": "260007459",
    "CommonName": "Railway Station",
    "Indicator": "Stand B",
    "LocalityName": "Loughborough",
    "Longitude": "-1.195607557",
    "Latitude": "52.778298226"
  },
  {
    "StopPointRef": "260007346",
    "CommonName": "The Greyhound",
    "Indicator": "adj",
    "LocalityName": "Loughborough",
    "Longitude": "-1.199591970",
    "Latitude": "52.775482687"
  },
  {
    "StopPointRef": "3390ME01",
    "CommonName": "Arkwright Street",
    "Indicator": "Stop ME01",
    "LocalityName": "Meadows",
    "Longitude": "-1.146708386",
    "Latitude": "52.946007898"
  },
  {
    "StopPointRef": "3390ME03",
    "CommonName": "Eugene Gardens",
    "Indicator": "Stop ME03",
    "LocalityName": "Meadows",
    "Longitude": "-1.140431893",
    "Latitude": "52.943654010"
  },
  {
    "StopPointRef": "3390ME08",
    "CommonName": "Eugene Gardens",
    "Indicator": "Stop ME08",
    "LocalityName": "Meadows",
    "Longitude": "-1.140378943",
    "Latitude": "52.943022428"
  },
  {
    "StopPointRef": "3390ME02",
    "CommonName": "Lammas Gardens",
    "Indicator": "Stop ME02",
    "LocalityName": "Meadows",
    "Longitude": "-1.143134583",
    "Latitude": "52.944636418"
  },
  {
    "StopPointRef": "3390ME09",
    "CommonName": "Lammas Gardens",
    "Indicator": "Stop ME09",
    "LocalityName": "Meadows",
    "Longitude": "-1.144210512",
    "Latitude": "52.944676691"
  },
  {
    "StopPointRef": "3390ME04",
    "CommonName": "Ryehill Street",
    "Indicator": "Stop ME04",
    "LocalityName": "Meadows",
    "Longitude": "-1.140143390",
    "Latitude": "52.940657817"
  },
  {
    "StopPointRef": "3390ME07",
    "CommonName": "Ryehill Street",
    "Indicator": "Stop ME07",
    "LocalityName": "Meadows",
    "Longitude": "-1.140166253",
    "Latitude": "52.940910395"
  },
  {
    "StopPointRef": "3390S3",
    "CommonName": "Nottingham Railway Station",
    "Indicator": "Stop S3",
    "LocalityName": "Nottingham",
    "Longitude": "-1.147522546",
    "Latitude": "52.947758262"
  },
  {
    "StopPointRef": "3390S6",
    "CommonName": "Nottingham Railway Station",
    "Indicator": "Stop S6",
    "LocalityName": "Nottingham",
    "Longitude": "-1.147518887",
    "Latitude": "52.947750497"
  },
  {
    "StopPointRef": "3390BB04",
    "CommonName": "Broad Marsh Bus Station",
    "Indicator": "Bay 4",
    "LocalityName": "Nottingham",
    "Longitude": "-1.147143460",
    "Latitude": "52.949281050"
  },
  {
    "StopPointRef": "3300RU0232",
    "CommonName": "Ashby Road",
    "Indicator": "adj",
    "LocalityName": "Rempstone",
    "Longitude": "-1.146679488",
    "Latitude": "52.814699150"
  },
  {
    "StopPointRef": "3300RU0597",
    "CommonName": "Ashby Road",
    "Indicator": "opp",
    "LocalityName": "Rempstone",
    "Longitude": "-1.147437271",
    "Latitude": "52.813688431"
  },
  {
    "StopPointRef": "3300RU0499",
    "CommonName": "Loughborough Road",
    "Indicator": "N-bound",
    "LocalityName": "Rempstone",
    "Longitude": "-1.146606626",
    "Latitude": "52.823117075"
  },
  {
    "StopPointRef": "3300RU0478",
    "CommonName": "Loughborough Road",
    "Indicator": "S-bound",
    "LocalityName": "Rempstone",
    "Longitude": "-1.146645368",
    "Latitude": "52.823345418"
  },
  {
    "StopPointRef": "3300RU0695",
    "CommonName": "Scout Hut",
    "Indicator": "adj",
    "LocalityName": "Ruddington Business Park",
    "Longitude": "-1.141385242",
    "Latitude": "52.887569668"
  },
  {
    "StopPointRef": "3300RU0166",
    "CommonName": "Scout Hut",
    "Indicator": "opp",
    "LocalityName": "Ruddington Business Park",
    "Longitude": "-1.141669733",
    "Latitude": "52.887921131"
  },
  {
    "StopPointRef": "3300RU0151",
    "CommonName": "Ashworth Avenue",
    "Indicator": "adj",
    "LocalityName": "Ruddington",
    "Longitude": "-1.141355891",
    "Latitude": "52.897609582"
  },
  {
    "StopPointRef": "3300RU0152",
    "CommonName": "Ashworth Avenue",
    "Indicator": "opp",
    "LocalityName": "Ruddington",
    "Longitude": "-1.141584931",
    "Latitude": "52.896891096"
  },
  {
    "StopPointRef": "3300RU0153",
    "CommonName": "Flawforth Lane",
    "Indicator": "adj",
    "LocalityName": "Ruddington",
    "Longitude": "-1.142682051",
    "Latitude": "52.891440094"
  },
  {
    "StopPointRef": "3300RU0154",
    "CommonName": "Flawforth Lane",
    "Indicator": "opp",
    "LocalityName": "Ruddington",
    "Longitude": "-1.142707715",
    "Latitude": "52.891163413"
  },
  {
    "StopPointRef": "3300RU0174",
    "CommonName": "Landmere Lane",
    "Indicator": "adj",
    "LocalityName": "Ruddington",
    "Longitude": "-1.144092440",
    "Latitude": "52.903018788"
  },
  {
    "StopPointRef": "3300RU0176",
    "CommonName": "Landmere Lane",
    "Indicator": "opp",
    "LocalityName": "Ruddington",
    "Longitude": "-1.143900207",
    "Latitude": "52.903890734"
  },
  {
    "StopPointRef": "3300RU0002",
    "CommonName": "County Hall",
    "Indicator": "o/s",
    "LocalityName": "Trent Bridge",
    "Longitude": "-1.134606083",
    "Latitude": "52.936398747"
  },
  {
    "StopPointRef": "3300RU0003",
    "CommonName": "County Hall",
    "Indicator": "Stop B",
    "LocalityName": "Trent Bridge",
    "Longitude": "-1.134394801",
    "Latitude": "52.936256623"
  },
  {
    "StopPointRef": "3390ME05",
    "CommonName": "Victoria Embankment",
    "Indicator": "Stop ME05",
    "LocalityName": "Trent Bridge",
    "Longitude": "-1.138032135",
    "Latitude": "52.939417286"
  },
  {
    "StopPointRef": "3390ME06",
    "CommonName": "Victoria Embankment",
    "Indicator": "Stop ME06",
    "LocalityName": "Trent Bridge",
    "Longitude": "-1.138498875",
    "Latitude": "52.939384734"
  },
  {
    "StopPointRef": "3300RU0071",
    "CommonName": "ASDA",
    "Indicator": "o/s",
    "LocalityName": "West Bridgford",
    "Longitude": "-1.136806202",
    "Latitude": "52.924222719"
  },
  {
    "StopPointRef": "3300RU0230",
    "CommonName": "ASDA",
    "Indicator": "opp",
    "LocalityName": "West Bridgford",
    "Longitude": "-1.136101305",
    "Latitude": "52.922947692"
  },
  {
    "StopPointRef": "3300RU0005",
    "CommonName": "Balmoral Avenue",
    "Indicator": "adj",
    "LocalityName": "West Bridgford",
    "Longitude": "-1.136684388",
    "Latitude": "52.933317970"
  },
  {
    "StopPointRef": "3300RU0114",
    "CommonName": "Chaworth Road",
    "Indicator": "adj",
    "LocalityName": "West Bridgford",
    "Longitude": "-1.138154583",
    "Latitude": "52.925918447"
  },
  {
    "StopPointRef": "3300RU0073",
    "CommonName": "Chaworth Road",
    "Indicator": "opp",
    "LocalityName": "West Bridgford",
    "Longitude": "-1.138178208",
    "Latitude": "52.925973878"
  },
  {
    "StopPointRef": "3300RU0112",
    "CommonName": "Chestnut Grove",
    "Indicator": "adj",
    "LocalityName": "West Bridgford",
    "Longitude": "-1.137752957",
    "Latitude": "52.928679924"
  },
  {
    "StopPointRef": "3300RU0113",
    "CommonName": "Chestnut Grove",
    "Indicator": "opp",
    "LocalityName": "West Bridgford",
    "Longitude": "-1.137762699",
    "Latitude": "52.928511132"
  },
  {
    "StopPointRef": "3300RU0144",
    "CommonName": "Fire Station",
    "Indicator": "adj",
    "LocalityName": "West Bridgford",
    "Longitude": "-1.136097157",
    "Latitude": "52.917092050"
  },
  {
    "StopPointRef": "3300RU0145",
    "CommonName": "Fire Station",
    "Indicator": "opp",
    "LocalityName": "West Bridgford",
    "Longitude": "-1.136046737",
    "Latitude": "52.916893496"
  },
  {
    "StopPointRef": "3300RU0111",
    "CommonName": "Victoria Road",
    "Indicator": "adj",
    "LocalityName": "West Bridgford",
    "Longitude": "-1.137457098",
    "Latitude": "52.930955225"
  },
  {
    "StopPointRef": "3300RU0110",
    "CommonName": "Victoria Road",
    "Indicator": "opp",
    "LocalityName": "West Bridgford",
    "Longitude": "-1.137262427",
    "Latitude": "52.931473142"
  },
  {
    "StopPointRef": "3300RU0485",
    "CommonName": "Cemetery",
    "Indicator": "o/s",
    "LocalityName": "Wilford Hill",
    "Longitude": "-1.140600642",
    "Latitude": "52.913186619"
  },
  {
    "StopPointRef": "3300RU0484",
    "CommonName": "Cemetery",
    "Indicator": "opp",
    "LocalityName": "Wilford Hill",
    "Longitude": "-1.141364944",
    "Latitude": "52.912932189"
  },
  {
    "StopPointRef": "3300RU0817",
    "CommonName": "Greythorn Drive",
    "Indicator": "adj",
    "LocalityName": "Wilford Hill",
    "Longitude": "-1.143823421",
    "Latitude": "52.911702094"
  },
  {
    "StopPointRef": "3300RU0818",
    "CommonName": "Greythorn Drive",
    "Indicator": "opp",
    "LocalityName": "Wilford Hill",
    "Longitude": "-1.143382897",
    "Latitude": "52.911948598"
  },
  {
    "StopPointRef": "3300RU0482",
    "CommonName": "Oakham Road",
    "Indicator": "adj",
    "LocalityName": "Wilford Hill",
    "Longitude": "-1.145380506",
    "Latitude": "52.909733148"
  },
  {
    "StopPointRef": "3300RU0483",
    "CommonName": "Oakham Road",
    "Indicator": "opp",
    "LocalityName": "Wilford Hill",
    "Longitude": "-1.145195279",
    "Latitude": "52.909204237"
  },
  {
    "StopPointRef": "3300RU0486",
    "CommonName": "Stanhome Drive",
    "Indicator": "adj",
    "LocalityName": "Wilford Hill",
    "Longitude": "-1.138159354",
    "Latitude": "52.913773059"
  },
  {
    "StopPointRef": "3300RU0572",
    "CommonName": "Stanhome Drive",
    "Indicator": "opp",
    "LocalityName": "Wilford Hill",
    "Longitude": "-1.137595310",
    "Latitude": "52.913854998"
  },
  {
    "StopPointRef": "269057005",
    "CommonName": "Haymarket Bus Station",
    "Indicator": null,
    "LocalityName": null,
    "Longitude": "-1.130000",
    "Latitude": "52.638200"
  },
  {
    "StopPointRef": "269057035",
    "CommonName": "Humberstone Gate",
    "Indicator": null,
    "LocalityName": null,
    "Longitude": "-1.128478",
    "Latitude": "52.636779"
  },
  {
    "StopPointRef": "269057012",
    "CommonName": "Charles Street",
    "Indicator": null,
    "LocalityName": null,
    "Longitude": "-1.130507",
    "Latitude": "52.636745"
  },
  {
    "StopPointRef": "269057039",
    "CommonName": "Humberstone Gate",
    "Indicator": null,
    "LocalityName": null,
    "Longitude": "-1.128500",
    "Latitude": "52.636420"
  },
  {
    "StopPointRef": "269045051",
    "CommonName": "Ann Street",
    "Indicator": null,
    "LocalityName": null,
    "Longitude": "-1.124569",
    "Latitude": "52.637200"
  },
  {
    "StopPointRef": "269045052",
    "CommonName": "Ann Street",
    "Indicator": null,
    "LocalityName": null,
    "Longitude": "-1.124541",
    "Latitude": "52.637128"
  },
  {
    "StopPointRef": "269057067",
    "CommonName": "Madras Road",
    "Indicator": null,
    "LocalityName": null,
    "Longitude": "-1.121370",
    "Latitude": "52.638291"
  },
  {
    "StopPointRef": "269057065",
    "CommonName": "Brunswick Street",
    "Indicator": null,
    "LocalityName": null,
    "Longitude": "-1.121316",
    "Latitude": "52.638012"
  },
  {
    "StopPointRef": "269057069",
    "CommonName": "Dysart Way",
    "Indicator": null,
    "LocalityName": null,
    "Longitude": "-1.119575",
    "Latitude": "52.639366"
  },
  {
    "StopPointRef": "269035000",
    "CommonName": "Farringdon Street",
    "Indicator": null,
    "LocalityName": null,
    "Longitude": "-1.110743",
    "Latitude": "52.641268"
  },
  {
    "StopPointRef": "269057064",
    "CommonName": "Dysart Way",
    "Indicator": null,
    "LocalityName": null,
    "Longitude": "-1.118612",
    "Latitude": "52.639457"
  },
  {
    "StopPointRef": "269035001",
    "CommonName": "Spinney Hill Road",
    "Indicator": null,
    "LocalityName": null,
    "Longitude": "-1.107566",
    "Latitude": "52.641982"
  },
  {
    "StopPointRef": "269053001",
    "CommonName": "Overton Road",
    "Indicator": null,
    "LocalityName": null,
    "Longitude": "-1.103067",
    "Latitude": "52.642289"
  },
  {
    "StopPointRef": "269035005",
    "CommonName": "Farringdon Street",
    "Indicator": null,
    "LocalityName": null,
    "Longitude": "-1.111904",
    "Latitude": "52.640873"
  },
  {
    "StopPointRef": "269035004",
    "CommonName": "Spinney Hill Road",
    "Indicator": null,
    "LocalityName": null,
    "Longitude": "-1.109246",
    "Latitude": "52.641518"
  },
  {
    "StopPointRef": "269053002",
    "CommonName": "Sulgrave Road",
    "Indicator": null,
    "LocalityName": null,
    "Longitude": "-1.100662",
    "Latitude": "52.642100"
  },
  {
    "StopPointRef": "269053003",
    "CommonName": "Kitchener Road",
    "Indicator": null,
    "LocalityName": null,
    "Longitude": "-1.097512",
    "Latitude": "52.642184"
  },
  {
    "StopPointRef": "269035003",
    "CommonName": "Overton Road",
    "Indicator": null,
    "LocalityName": null,
    "Longitude": "-1.103674",
    "Latitude": "52.642295"
  },
  {
    "StopPointRef": "269035002",
    "CommonName": "St Barnabas Road",
    "Indicator": null,
    "LocalityName": null,
    "Longitude": "-1.098727",
    "Latitude": "52.642041"
  },
  {
    "StopPointRef": "269053004",
    "CommonName": "Exton Road",
    "Indicator": null,
    "LocalityName": null,
    "Longitude": "-1.093358",
    "Latitude": "52.642260"
  },
  {
    "StopPointRef": "269053005",
    "CommonName": "King Edward Road",
    "Indicator": null,
    "LocalityName": null,
    "Longitude": "-1.090669",
    "Latitude": "52.642195"
  },
  {
    "StopPointRef": "269036005",
    "CommonName": "Kitchener Road",
    "Indicator": null,
    "LocalityName": null,
    "Longitude": "-1.096036",
    "Latitude": "52.642119"
  },
  {
    "StopPointRef": "269036004",
    "CommonName": "Exton Road",
    "Indicator": null,
    "LocalityName": null,
    "Longitude": "-1.092400",
    "Latitude": "52.642127"
  },
  {
    "StopPointRef": "269053006",
    "CommonName": "Turner Road",
    "Indicator": null,
    "LocalityName": null,
    "Longitude": "-1.087376",
    "Latitude": "52.642107"
  },
  {
    "StopPointRef": "269041000",
    "CommonName": "Humberstone Park",
    "Indicator": null,
    "LocalityName": null,
    "Longitude": "-1.085396",
    "Latitude": "52.642091"
  },
  {
    "StopPointRef": "269036003",
    "CommonName": "King Edward Road",
    "Indicator": null,
    "LocalityName": null,
    "Longitude": "-1.089253",
    "Latitude": "52.642076"
  },
  {
    "StopPointRef": "269036002",
    "CommonName": "Humberstone Park",
    "Indicator": null,
    "LocalityName": null,
    "Longitude": "-1.085605",
    "Latitude": "52.641985"
  },
  {
    "StopPointRef": "269052006",
    "CommonName": "Rockery Close",
    "Indicator": null,
    "LocalityName": null,
    "Longitude": "-1.079347",
    "Latitude": "52.639473"
  },
  {
    "StopPointRef": "269052007",
    "CommonName": "Peters Drive",
    "Indicator": null,
    "LocalityName": null,
    "Longitude": "-1.076515",
    "Latitude": "52.638489"
  },
  {
    "StopPointRef": "269052012",
    "CommonName": "Havencrest Drive",
    "Indicator": null,
    "LocalityName": null,
    "Longitude": "-1.073245",
    "Latitude": "52.637996"
  },
  {
    "StopPointRef": "269052013",
    "CommonName": "Elmcroft Avenue",
    "Indicator": null,
    "LocalityName": null,
    "Longitude": "-1.072585",
    "Latitude": "52.639870"
  },
  {
    "StopPointRef": "269052040",
    "CommonName": "Colchester Road",
    "Indicator": null,
    "LocalityName": null,
    "Longitude": "-1.071831",
    "Latitude": "52.640575"
  },
  {
    "StopPointRef": "269036001",
    "CommonName": "Rockery Close",
    "Indicator": null,
    "LocalityName": null,
    "Longitude": "-1.080680",
    "Latitude": "52.640023"
  },
  {
    "StopPointRef": "269052038",
    "CommonName": "Ocean Close",
    "Indicator": null,
    "LocalityName": null,
    "Longitude": "-1.068812",
    "Latitude": "52.640056"
  },
  {
    "StopPointRef": "269052033",
    "CommonName": "Dudley Close",
    "Indicator": null,
    "LocalityName": null,
    "Longitude": "-1.068133",
    "Latitude": "52.638649"
  },
  {
    "StopPointRef": "269036000",
    "CommonName": "Peters Drive",
    "Indicator": null,
    "LocalityName": null,
    "Longitude": "-1.077106",
    "Latitude": "52.638512"
  },
  {
    "StopPointRef": "269052034",
    "CommonName": "Somers Road",
    "Indicator": null,
    "LocalityName": null,
    "Longitude": "-1.065797",
    "Latitude": "52.638001"
  },
  {
    "StopPointRef": "269052017",
    "CommonName": "Havencrest Drive",
    "Indicator": null,
    "LocalityName": null,
    "Longitude": "-1.072722",
    "Latitude": "52.638280"
  },
  {
    "StopPointRef": "269052016",
    "CommonName": "Elmcroft Avenue",
    "Indicator": null,
    "LocalityName": null,
    "Longitude": "-1.072180",
    "Latitude": "52.640146"
  },
  {
    "StopPointRef": "269052035",
    "CommonName": "Herthull Road",
    "Indicator": null,
    "LocalityName": null,
    "Longitude": "-1.062636",
    "Latitude": "52.637230"
  },
  {
    "StopPointRef": "269052036",
    "CommonName": "Dakyn Road",
    "Indicator": null,
    "LocalityName": null,
    "Longitude": "-1.059748",
    "Latitude": "52.636838"
  },
  {
    "StopPointRef": "269052039",
    "CommonName": "Ocean Road",
    "Indicator": null,
    "LocalityName": null,
    "Longitude": "-1.069559",
    "Latitude": "52.640395"
  },