<?xml version="1.0" encoding="utf-8"?>
<TransXChange xmlns:xsi="http://www.w3.org/2001/XMLSchema-instance" SchemaVersion="2.4" CreationDateTime="2024-09-19T08:38:16" ModificationDateTime="2025-05-02T10:08:39" Modification="revise" RevisionNumber="29" FileName="ADER_2S_ADERPC1116467182_20250419_-_2096432.xml" xmlns="http://www.transxchange.org.uk/">
  <StopPoints>
    <AnnotatedStopPointRef>
      <StopPointRef>109000022150</StopPointRef>
      <CommonName>Morledge</CommonName>
      <Location>
        <Longitude>-1.473138</Longitude>
        <Latitude>52.921643</Latitude>
      </Location>
    </AnnotatedStopPointRef>
    <AnnotatedStopPointRef>
      <StopPointRef>109000022155</StopPointRef>
      <CommonName>Morledge</CommonName>
      <Location>
        <Longitude>-1.473594</Longitude>
        <Latitude>52.921996</Latitude>
      </Location>
    </AnnotatedStopPointRef>
    <AnnotatedStopPointRef>
      <StopPointRef>1090BSTN18</StopPointRef>
      <CommonName>Bus Station</CommonName>
      <Location>
        <Longitude>-1.471350</Longitude>
        <Latitude>52.921970</Latitude>
      </Location>
    </AnnotatedStopPointRef>
    <AnnotatedStopPointRef>
      <StopPointRef>1090DDTS1259</StopPointRef>
      <CommonName>London Road</CommonName>
      <Location>
        <Longitude>-1.474078</Longitude>
        <Latitude>52.918897</Latitude>
      </Location>
    </AnnotatedStopPointRef>
    <AnnotatedStopPointRef>
      <StopPointRef>109000009314</StopPointRef>
      <CommonName>London Road</CommonName>
      <Location>
        <Longitude>-1.472853</Longitude>
        <Latitude>52.918154</Latitude>
      </Location>
    </AnnotatedStopPointRef>
    <AnnotatedStopPointRef>
      <StopPointRef>109000009313</StopPointRef>
      <CommonName>Osmaston Road</CommonName>
      <Location>
        <Longitude>-1.474844</Longitude>
        <Latitude>52.918316</Latitude>
      </Location>
    </AnnotatedStopPointRef>
    <AnnotatedStopPointRef>
      <StopPointRef>1090DDTS1272</StopPointRef>
      <CommonName>Osmaston Road</CommonName>
      <Location>
        <Longitude>-1.474780</Longitude>
        <Latitude>52.918630</Latitude>
      </Location>
    </AnnotatedStopPointRef>
    <AnnotatedStopPointRef>
      <StopPointRef>109052312</StopPointRef>
      <CommonName>Siddals Road</CommonName>
      <Location>
        <Longitude>-1.468602</Longitude>
        <Latitude>52.920311</Latitude>
      </Location>
    </AnnotatedStopPointRef>
    <AnnotatedStopPointRef>
      <StopPointRef>109000009320</StopPointRef>
      <CommonName>Melbourne Street</CommonName>
      <Location>
        <Longitude>-1.472986</Longitude>
        <Latitude>52.915718</Latitude>
      </Location>
    </AnnotatedStopPointRef>
    <AnnotatedStopPointRef>
      <StopPointRef>109000009321</StopPointRef>
      <CommonName>Melbourne Street</CommonName>
      <Location>
        <Longitude>-1.473516</Longitude>
        <Latitude>52.916224</Latitude>
      </Location>
    </AnnotatedStopPointRef>
    <AnnotatedStopPointRef>
      <StopPointRef>109000009370</StopPointRef>
      <CommonName>Calvert Street</CommonName>
      <Location>
        <Longitude>-1.463912</Longitude>
        <Latitude>52.918321</Latitude>
      </Location>
    </AnnotatedStopPointRef>
    <AnnotatedStopPointRef>
      <StopPointRef>109052310</StopPointRef>
      <CommonName>Siddals Road</CommonName>
      <Location>
        <Longitude>-1.468856</Longitude>
        <Latitude>52.920294</Latitude>
      </Location>
    </AnnotatedStopPointRef>
    <AnnotatedStopPointRef>
      <StopPointRef>109000009369</StopPointRef>
      <CommonName>Calvert Street</CommonName>
      <Location>
        <Longitude>-1.464047</Longitude>
        <Latitude>52.918214</Latitude>
      </Location>
    </AnnotatedStopPointRef>
    <AnnotatedStopPointRef>
      <StopPointRef>109000009371</StopPointRef>
      <CommonName>Railway Station</CommonName>
      <Location>
        <Longitude>-1.463971</Longitude>
        <Latitude>52.915939</Latitude>
      </Location>
    </AnnotatedStopPointRef>
    <AnnotatedStopPointRef>
      <StopPointRef>1090DDRS1339</StopPointRef>
      <CommonName>Railway Station</CommonName>
      <Location>
        <Longitude>-1.463894</Longitude>
        <Latitude>52.916154</Latitude>
      </Location>
    </AnnotatedStopPointRef>
    <AnnotatedStopPointRef>
      <StopPointRef>109000009302</StopPointRef>
      <CommonName>Midland Road</CommonName>
      <Location>
        <Longitude>-1.466648</Longitude>
        <Latitude>52.914719</Latitude>
      </Location>
    </AnnotatedStopPointRef>
    <AnnotatedStopPointRef>
      <StopPointRef>109000009300</StopPointRef>
      <CommonName>Midland Road</CommonName>
      <Location>
        <Longitude>-1.466360</Longitude>
        <Latitude>52.915159</Latitude>
      </Location>
    </AnnotatedStopPointRef>
    <AnnotatedStopPointRef>
      <StopPointRef>109000009373</StopPointRef>
      <CommonName>Bloomfield Street</CommonName>
      <Location>
        <Longitude>-1.464834</Longitude>
        <Latitude>52.913534</Latitude>
      </Location>
    </AnnotatedStopPointRef>
    <AnnotatedStopPointRef>
      <StopPointRef>109000009324</StopPointRef>
      <CommonName>Morleston Street</CommonName>
      <Location>
        <Longitude>-1.471267</Longitude>
        <Latitude>52.914030</Latitude>
      </Location>
    </AnnotatedStopPointRef>
    <AnnotatedStopPointRef>
      <StopPointRef>109000009325</StopPointRef>
      <CommonName>Morleston Street</CommonName>
      <Location>
        <Longitude>-1.471461</Longitude>
        <Latitude>52.914004</Latitude>
      </Location>
    </AnnotatedStopPointRef>
    <AnnotatedStopPointRef>
      <StopPointRef>109000009326</StopPointRef>
      <CommonName>Crown Derby</CommonName>
      <Location>
        <Longitude>-1.469306</Longitude>
        <Latitude>52.912601</Latitude>
      </Location>
    </AnnotatedStopPointRef>
    <AnnotatedStopPointRef>
      <StopPointRef>109000009360</StopPointRef>
      <CommonName>Ivy Square</CommonName>
      <Location>
        <Longitude>-1.465634</Longitude>
        <Latitude>52.910112</Latitude>
      </Location>
    </AnnotatedStopPointRef>
    <AnnotatedStopPointRef>
      <StopPointRef>109000009374</StopPointRef>
      <CommonName>Bloomfield Street</CommonName>
      <Location>
        <Longitude>-1.464968</Longitude>
        <Latitude>52.913480</Latitude>
      </Location>
    </AnnotatedStopPointRef>
    <AnnotatedStopPointRef>
      <StopPointRef>109000009327</StopPointRef>
      <CommonName>Crown Derby</CommonName>
      <Location>
        <Longitude>-1.469264</Longitude>
        <Latitude>52.912439</Latitude>
      </Location>
    </AnnotatedStopPointRef>
    <AnnotatedStopPointRef>
      <StopPointRef>109000009299</StopPointRef>
      <CommonName>Ivy Square</CommonName>
      <Location>
        <Longitude>-1.466254</Longitude>
        <Latitude>52.910484</Latitude>
      </Location>
    </AnnotatedStopPointRef>
    <AnnotatedStopPointRef>
      <StopPointRef>109000009359</StopPointRef>
      <CommonName>Shaftsbury Street</CommonName>
      <Location>
        <Longitude>-1.464983</Longitude>
        <Latitude>52.908671</Latitude>
      </Location>
    </AnnotatedStopPointRef>
    <AnnotatedStopPointRef>
      <StopPointRef>109000009358</StopPointRef>
      <CommonName>Litchurch Lane</CommonName>
      <Location>
        <Longitude>-1.463035</Longitude>
        <Latitude>52.906280</Latitude>
      </Location>
    </AnnotatedStopPointRef>
    <AnnotatedStopPointRef>
      <StopPointRef>109000009354</StopPointRef>
      <CommonName>Abingdon Street</CommonName>
      <Location>
        <Longitude>-1.460933</Longitude>
        <Latitude>52.903133</Latitude>
      </Location>
    </AnnotatedStopPointRef>
    <AnnotatedStopPointRef>
      <StopPointRef>109000009357</StopPointRef>
      <CommonName>Litchurch Lane</CommonName>
      <Location>
        <Longitude>-1.462628</Longitude>
        <Latitude>52.905478</Latitude>
      </Location>
    </AnnotatedStopPointRef>
    <AnnotatedStopPointRef>
      <StopPointRef>109000009353</StopPointRef>
      <CommonName>Abingdon Street</CommonName>
      <Location>
        <Longitude>-1.460892</Longitude>
        <Latitude>52.902845</Latitude>
      </Location>
    </AnnotatedStopPointRef>
    <AnnotatedStopPointRef>
      <StopPointRef>109000009781</StopPointRef>
      <CommonName>Nightingale Road</CommonName>
      <Location>
        <Longitude>-1.458149</Longitude>
        <Latitude>52.899884</Latitude>
      </Location>
    </AnnotatedStopPointRef>
    <AnnotatedStopPointRef>
      <StopPointRef>109000009779</StopPointRef>
      <CommonName>Waverley Street</CommonName>
      <Location>
        <Longitude>-1.457171</Longitude>
        <Latitude>52.897210</Latitude>
      </Location>
    </AnnotatedStopPointRef>
    <AnnotatedStopPointRef>
      <StopPointRef>109000009782</StopPointRef>
      <CommonName>Nightingale Road</CommonName>
      <Location>
        <Longitude>-1.458619</Longitude>
        <Latitude>52.900300</Latitude>
      </Location>
    </AnnotatedStopPointRef>
    <AnnotatedStopPointRef>
      <StopPointRef>109000009780</StopPointRef>
      <CommonName>Waverley Street</CommonName>
      <Location>
        <Longitude>-1.457551</Longitude>
        <Latitude>52.897778</Latitude>
      </Location>
    </AnnotatedStopPointRef>
    <AnnotatedStopPointRef>
      <StopPointRef>109000009778</StopPointRef>
      <CommonName>Campbell Street</CommonName>
      <Location>
        <Longitude>-1.455902</Longitude>
        <Latitude>52.895271</Latitude>
      </Location>
    </AnnotatedStopPointRef>
    <AnnotatedStopPointRef>
      <StopPointRef>109000009776</StopPointRef>
      <CommonName>Ascot Drive South</CommonName>
      <Location>
        <Longitude>-1.454140</Longitude>
        <Latitude>52.893519</Latitude>
      </Location>
    </AnnotatedStopPointRef>
    <AnnotatedStopPointRef>
      <StopPointRef>109000009777</StopPointRef>
      <CommonName>Campbell Street</CommonName>
      <Location>
        <Longitude>-1.455875</Longitude>
        <Latitude>52.895047</Latitude>
      </Location>
    </AnnotatedStopPointRef>
    <AnnotatedStopPointRef>
      <StopPointRef>109000009761</StopPointRef>
      <CommonName>Peveril Street</CommonName>
      <Location>
        <Longitude>-1.453323</Longitude>
        <Latitude>52.892347</Latitude>
      </Location>
    </AnnotatedStopPointRef>
    <AnnotatedStopPointRef>
      <StopPointRef>109000009760</StopPointRef>
      <CommonName>Peveril Street</CommonName>
      <Location>
        <Longitude>-1.453487</Longitude>
        <Latitude>52.892321</Latitude>
      </Location>
    </AnnotatedStopPointRef>
    <AnnotatedStopPointRef>
      <StopPointRef>109000009768</StopPointRef>
      <CommonName>Bingham Street</CommonName>
      <Location>
        <Longitude>-1.452005</Longitude>
        <Latitude>52.890786</Latitude>
      </Location>
    </AnnotatedStopPointRef>
    <AnnotatedStopPointRef>
      <StopPointRef>109000009767</StopPointRef>
      <CommonName>Bingham Street</CommonName>
      <Location>
        <Longitude>-1.452316</Longitude>
        <Latitude>52.890850</Latitude>
      </Location>
    </AnnotatedStopPointRef>
    <AnnotatedStopPointRef>
      <StopPointRef>109000009851</StopPointRef>
      <CommonName>Allen Street</CommonName>
      <Location>
        <Longitude>-1.450869</Longitude>
        <Latitude>52.888920</Latitude>
      </Location>
    </AnnotatedStopPointRef>
    <AnnotatedStopPointRef>
      <StopPointRef>109000009854</StopPointRef>
      <CommonName>Westgreen Avenue</CommonName>
      <Location>
        <Longitude>-1.449790</Longitude>
        <Latitude>52.886128</Latitude>
      </Location>
    </AnnotatedStopPointRef>
    <AnnotatedStopPointRef>
      <StopPointRef>109000009803</StopPointRef>
      <CommonName>Merrill Way</CommonName>
      <Location>
        <Longitude>-1.448129</Longitude>
        <Latitude>52.883477</Latitude>
      </Location>
    </AnnotatedStopPointRef>
    <AnnotatedStopPointRef>
      <StopPointRef>109000009852</StopPointRef>
      <CommonName>Allen Street</CommonName>
      <Location>
        <Longitude>-1.450874</Longitude>
        <Latitude>52.888533</Latitude>
      </Location>
    </AnnotatedStopPointRef>
    <AnnotatedStopPointRef>
      <StopPointRef>109000009853</StopPointRef>
      <CommonName>Westgreen Avenue</CommonName>
      <Location>
        <Longitude>-1.450124</Longitude>
        <Latitude>52.886714</Latitude>
      </Location>
    </AnnotatedStopPointRef>
    <AnnotatedStopPointRef>
      <StopPointRef>109000009805</StopPointRef>
      <CommonName>174 Chellaston Road</CommonName>
      <Location>
        <Longitude>-1.447215</Longitude>
        <Latitude>52.881729</Latitude>
      </Location>
    </AnnotatedStopPointRef>
    <AnnotatedStopPointRef>
      <StopPointRef>109000009807</StopPointRef>
      <CommonName>Carlton Avenue</CommonName>
      <Location>
        <Longitude>-1.446057</Longitude>
        <Latitude>52.880492</Latitude>
      </Location>
    </AnnotatedStopPointRef>
    <AnnotatedStopPointRef>
      <StopPointRef>109000009855</StopPointRef>
      <CommonName>Merrill Way</CommonName>
      <Location>
        <Longitude>-1.449239</Longitude>
        <Latitude>52.884975</Latitude>
      </Location>
    </AnnotatedStopPointRef>
    <AnnotatedStopPointRef>
      <StopPointRef>109000009809</StopPointRef>
      <CommonName>Acorn Close</CommonName>
      <Location>
        <Longitude>-1.445200</Longitude>
        <Latitude>52.878915</Latitude>
      </Location>
    </AnnotatedStopPointRef>
    <AnnotatedStopPointRef>
      <StopPointRef>109000009810</StopPointRef>
      <CommonName>Chestnut Avenue</CommonName>
      <Location>
        <Longitude>-1.444324</Longitude>
        <Latitude>52.877697</Latitude>
      </Location>
    </AnnotatedStopPointRef>
    <AnnotatedStopPointRef>
      <StopPointRef>109000009804</StopPointRef>
      <CommonName>174 Chellaston Road</CommonName>
      <Location>
        <Longitude>-1.448021</Longitude>
        <Latitude>52.882605</Latitude>
      </Location>
    </AnnotatedStopPointRef>
    <AnnotatedStopPointRef>
      <StopPointRef>109000009806</StopPointRef>
      <CommonName>Carlton Avenue</CommonName>
      <Location>
        <Longitude>-1.446469</Longitude>
        <Latitude>52.880764</Latitude>
      </Location>
    </AnnotatedStopPointRef>
    <AnnotatedStopPointRef>
      <StopPointRef>109000009812</StopPointRef>
      <CommonName>Gladstone Close</CommonName>
      <Location>
        <Longitude>-1.442415</Longitude>
        <Latitude>52.875927</Latitude>
      </Location>
    </AnnotatedStopPointRef>
    <AnnotatedStopPointRef>
      <StopPointRef>109000009816</StopPointRef>
      <CommonName>Sutton Avenue</CommonName>
      <Location>
        <Longitude>-1.440463</Longitude>
        <Latitude>52.876376</Latitude>
      </Location>
    </AnnotatedStopPointRef>
    <AnnotatedStopPointRef>
      <StopPointRef>109000009808</StopPointRef>
      <CommonName>Acorn Close</CommonName>
      <Location>
        <Longitude>-1.445435</Longitude>
        <Latitude>52.879141</Latitude>
      </Location>
    </AnnotatedStopPointRef>
    <AnnotatedStopPointRef>
      <StopPointRef>109000009811</StopPointRef>
      <CommonName>Chestnut Avenue</CommonName>
      <Location>
        <Longitude>-1.444134</Longitude>
        <Latitude>52.877445</Latitude>
      </Location>
    </AnnotatedStopPointRef>
    <AnnotatedStopPointRef>
      <StopPointRef>109000009814</StopPointRef>
      <CommonName>Baverstock Close</CommonName>
      <Location>
        <Longitude>-1.437713</Longitude>
        <Latitude>52.877648</Latitude>
      </Location>
    </AnnotatedStopPointRef>
    <AnnotatedStopPointRef>
      <StopPointRef>109000009875</StopPointRef>
      <CommonName>Fernhill Court</CommonName>
      <Location>
        <Longitude>-1.435509</Longitude>
        <Latitude>52.876892</Latitude>
      </Location>
    </AnnotatedStopPointRef>
    <AnnotatedStopPointRef>
      <StopPointRef>109000009873</StopPointRef>
      <CommonName>Grafham Close</CommonName>
      <Location>
        <Longitude>-1.434814</Longitude>
        <Latitude>52.874309</Latitude>
      </Location>
    </AnnotatedStopPointRef>
    <AnnotatedStopPointRef>
      <StopPointRef>109000009813</StopPointRef>
      <CommonName>Gladstone Close</CommonName>
      <Location>
        <Longitude>-1.442300</Longitude>
        <Latitude>52.875638</Latitude>
      </Location>
    </AnnotatedStopPointRef>
    <AnnotatedStopPointRef>
      <StopPointRef>109000009792</StopPointRef>
      <CommonName>Ashleigh Drive</CommonName>
      <Location>
        <Longitude>-1.440880</Longitude>
        <Latitude>52.873987</Latitude>
      </Location>
    </AnnotatedStopPointRef>
    <AnnotatedStopPointRef>
      <StopPointRef>109000009871</StopPointRef>
      <CommonName>Redmires Drive</CommonName>
      <Location>
        <Longitude>-1.436424</Longitude>
        <Latitude>52.872797</Latitude>
      </Location>
    </AnnotatedStopPointRef>
    <AnnotatedStopPointRef>
      <StopPointRef>109000009801</StopPointRef>
      <CommonName>Junior School</CommonName>
      <Location>
        <Longitude>-1.437470</Longitude>
        <Latitude>52.871139</Latitude>
      </Location>
    </AnnotatedStopPointRef>
    <AnnotatedStopPointRef>
      <StopPointRef>109000009794</StopPointRef>
      <CommonName>Sinfin Moor Lane</CommonName>
      <Location>
        <Longitude>-1.440187</Longitude>
        <Latitude>52.871287</Latitude>
      </Location>
    </AnnotatedStopPointRef>
    <AnnotatedStopPointRef>
      <StopPointRef>109000009791</StopPointRef>
      <CommonName>Ashleigh Drive</CommonName>
      <Location>
        <Longitude>-1.441184</Longitude>
        <Latitude>52.874608</Latitude>
      </Location>
    </AnnotatedStopPointRef>
    <AnnotatedStopPointRef>
      <StopPointRef>109000009817</StopPointRef>
      <CommonName>Sutton Avenue</CommonName>
      <Location>
        <Longitude>-1.441645</Longitude>
        <Latitude>52.875779</Latitude>
      </Location>
    </AnnotatedStopPointRef>
    <AnnotatedStopPointRef>
      <StopPointRef>109000009793</StopPointRef>
      <CommonName>Sinfin Moor Lane</CommonName>
      <Location>
        <Longitude>-1.440100</Longitude>
        <Latitude>52.872257</Latitude>
      </Location>
    </AnnotatedStopPointRef>
    <AnnotatedStopPointRef>
      <StopPointRef>109000009815</StopPointRef>
      <CommonName>Baverstock Close</CommonName>
      <Location>
        <Longitude>-1.438312</Longitude>
        <Latitude>52.877256</Latitude>
      </Location>
    </AnnotatedStopPointRef>
    <AnnotatedStopPointRef>
      <StopPointRef>109000009874</StopPointRef>
      <CommonName>Grafham Close</CommonName>
      <Location>
        <Longitude>-1.435116</Longitude>
        <Latitude>52.875092</Latitude>
      </Location>
    </AnnotatedStopPointRef>
    <AnnotatedStopPointRef>
      <StopPointRef>109000009872</StopPointRef>
      <CommonName>Redmires Drive</CommonName>
      <Location>
        <Longitude>-1.436139</Longitude>
        <Latitude>52.872966</Latitude>
      </Location>
    </AnnotatedStopPointRef>
    <AnnotatedStopPointRef>
      <StopPointRef>109000009797</StopPointRef>
      <CommonName>High Street</CommonName>
      <Location>
        <Longitude>-1.438001</Longitude>
        <Latitude>52.867968</Latitude>
      </Location>
    </AnnotatedStopPointRef>
    <AnnotatedStopPointRef>
      <StopPointRef>109000009800</StopPointRef>
      <CommonName>Junior School</CommonName>
      <Location>
        <Longitude>-1.437693</Longitude>
        <Latitude>52.871095</Latitude>
      </Location>
    </AnnotatedStopPointRef>
    <AnnotatedStopPointRef>
      <StopPointRef>109000009795</StopPointRef>
      <CommonName>High Street</CommonName>
      <Location>
        <Longitude>-1.438730</Longitude>
        <Latitude>52.869041</Latitude>
      </Location>
    </AnnotatedStopPointRef>
    <AnnotatedStopPointRef>
      <StopPointRef>109000009799</StopPointRef>
      <CommonName>Chellaston School</CommonName>
      <Location>
        <Longitude>-1.437371</Longitude>
        <Latitude>52.866140</Latitude>
      </Location>
    </AnnotatedStopPointRef>
    <AnnotatedStopPointRef>
      <StopPointRef>109000009798</StopPointRef>
      <CommonName>Chellaston School</CommonName>
      <Location>
        <Longitude>-1.437260</Longitude>
        <Latitude>52.866742</Latitude>
      </Location>
    </AnnotatedStopPointRef>
    <AnnotatedStopPointRef>
      <StopPointRef>109000009935</StopPointRef>
      <CommonName>The Bonnie Prince</CommonName>
      <Location>
        <Longitude>-1.437883</Longitude>
        <Latitude>52.864604</Latitude>
      </Location>
    </AnnotatedStopPointRef>
    <AnnotatedStopPointRef>
      <StopPointRef>109000015701</StopPointRef>
      <CommonName>The Bonnie Prince</CommonName>
      <Location>
        <Longitude>-1.437921</Longitude>
        <Latitude>52.862718</Latitude>
      </Location>
    </AnnotatedStopPointRef>
    <AnnotatedStopPointRef>
      <StopPointRef>109052234</StopPointRef>
      <CommonName>Amberley Close</CommonName>
      <Location>
        <Longitude>-1.430167</Longitude>
        <Latitude>52.861567</Latitude>
      </Location>
    </AnnotatedStopPointRef>
    <AnnotatedStopPointRef>
      <StopPointRef>109052235</StopPointRef>
      <CommonName>Supermarket</CommonName>
      <Location>
        <Longitude>-1.435483</Longitude>
        <Latitude>52.861673</Latitude>
      </Location>
    </AnnotatedStopPointRef>
    <AnnotatedStopPointRef>
      <StopPointRef>109000022245</StopPointRef>
      <CommonName>Royal Approach</CommonName>
      <Location>
        <Longitude>-1.441721</Longitude>
        <Latitude>52.862898</Latitude>
      </Location>
    </AnnotatedStopPointRef>
    <AnnotatedStopPointRef>
      <StopPointRef>1090DCRP2129</StopPointRef>
      <CommonName>Royal Approach</CommonName>
      <Location>
        <Longitude>-1.441620</Longitude>
        <Latitude>52.862709</Latitude>
      </Location>
    </AnnotatedStopPointRef>
    <AnnotatedStopPointRef>
      <StopPointRef>109000022391</StopPointRef>
      <CommonName>Crown Way</CommonName>
      <Location>
        <Longitude>-1.443415</Longitude>
        <Latitude>52.864030</Latitude>
      </Location>
    </AnnotatedStopPointRef>
    <AnnotatedStopPointRef>
      <StopPointRef>109000022392</StopPointRef>
      <CommonName>Crown Way</CommonName>
      <Location>
        <Longitude>-1.442532</Longitude>
        <Latitude>52.863333</Latitude>
      </Location>
    </AnnotatedStopPointRef>
    <AnnotatedStopPointRef>
      <StopPointRef>109000022390</StopPointRef>
      <CommonName>Duchess Way</CommonName>
      <Location>
        <Longitude>-1.445540</Longitude>
        <Latitude>52.865055</Latitude>
      </Location>
    </AnnotatedStopPointRef>
    <AnnotatedStopPointRef>
      <StopPointRef>109000022389</StopPointRef>
      <CommonName>Duchess Way</CommonName>
      <Location>
        <Longitude>-1.445660</Longitude>
        <Latitude>52.865038</Latitude>
      </Location>
    </AnnotatedStopPointRef>
    <AnnotatedStopPointRef>
      <StopPointRef>109000022388</StopPointRef>
      <CommonName>Courtway Crescent</CommonName>
      <Location>
        <Longitude>-1.447227</Longitude>
        <Latitude>52.866798</Latitude>
      </Location>
    </AnnotatedStopPointRef>
    <AnnotatedStopPointRef>
      <StopPointRef>109000022387</StopPointRef>
      <CommonName>Courtway Crescent</CommonName>
      <Location>
        <Longitude>-1.447063</Longitude>
        <Latitude>52.866815</Latitude>
      </Location>
    </AnnotatedStopPointRef>
    <AnnotatedStopPointRef>
      <StopPointRef>109000022194</StopPointRef>
      <CommonName>Fordyce Close</CommonName>
      <Location>
        <Longitude>-1.448943</Longitude>
        <Latitude>52.868469</Latitude>
      </Location>
    </AnnotatedStopPointRef>
    <AnnotatedStopPointRef>
      <StopPointRef>109000022193</StopPointRef>
      <CommonName>Fordyce Close</CommonName>
      <Location>
        <Longitude>-1.449108</Longitude>
        <Latitude>52.868425</Latitude>
      </Location>
    </AnnotatedStopPointRef>
    <AnnotatedStopPointRef>
      <StopPointRef>1000DCBS5063</StopPointRef>
      <CommonName>Cuttle Bridge</CommonName>
      <Location>
        <Longitude>-1.444208</Longitude>
        <Latitude>52.856536</Latitude>
      </Location>
    </AnnotatedStopPointRef>
    <AnnotatedStopPointRef>
      <StopPointRef>109000022385</StopPointRef>
      <CommonName>Drummond Way</CommonName>
      <Location>
        <Longitude>-1.449519</Longitude>
        <Latitude>52.871132</Latitude>
      </Location>
    </AnnotatedStopPointRef>
    <AnnotatedStopPointRef>
      <StopPointRef>109000022383</StopPointRef>
      <CommonName>Prestwick Way</CommonName>
      <Location>
        <Longitude>-1.448173</Longitude>
        <Latitude>52.871800</Latitude>
      </Location>
    </AnnotatedStopPointRef>
    <AnnotatedStopPointRef>
      <StopPointRef>1000DSSR5054</StopPointRef>
      <CommonName>Cottage Garage</CommonName>
      <Location>
        <Longitude>-1.448488</Longitude>
        <Latitude>52.855198</Latitude>
      </Location>
    </AnnotatedStopPointRef>
    <AnnotatedStopPointRef>
      <StopPointRef>109000022384</StopPointRef>
      <CommonName>Prestwick Way</CommonName>
      <Location>
        <Longitude>-1.448262</Longitude>
        <Latitude>52.871864</Latitude>
      </Location>
    </AnnotatedStopPointRef>
    <AnnotatedStopPointRef>
      <StopPointRef>109000022386</StopPointRef>
      <CommonName>Drummond Way</CommonName>
      <Location>
        <Longitude>-1.449896</Longitude>
        <Latitude>52.870739</Latitude>
      </Location>
    </AnnotatedStopPointRef>
    <AnnotatedStopPointRef>
      <StopPointRef>100000008674</StopPointRef>
      <CommonName>Woodshop Lane</CommonName>
      <Location>
        <Longitude>-1.456516</Longitude>
        <Latitude>52.854498</Latitude>
      </Location>
    </AnnotatedStopPointRef>
    <AnnotatedStopPointRef>
      <StopPointRef>1000DCBS5064</StopPointRef>
      <CommonName>Cuttle Bridge</CommonName>
      <Location>
        <Longitude>-1.443635</Longitude>
        <Latitude>52.857216</Latitude>
      </Location>
    </AnnotatedStopPointRef>
    <AnnotatedStopPointRef>
      <StopPointRef>1000DSSR5055</StopPointRef>
      <CommonName>Cottage Garage</CommonName>
      <Location>
        <Longitude>-1.449022</Longitude>
        <Latitude>52.855210</Latitude>
      </Location>
    </AnnotatedStopPointRef>
    <AnnotatedStopPointRef>
      <StopPointRef>1000DBTS5062</StopPointRef>
      <CommonName>71 Swarkestone Road</CommonName>
      <Location>
        <Longitude>-1.471202</Longitude>
        <Latitude>52.853333</Latitude>
      </Location>
    </AnnotatedStopPointRef>
    <AnnotatedStopPointRef>
      <StopPointRef>1000DBTS5058</StopPointRef>
      <CommonName>Sinfin Lane</CommonName>
      <Location>
        <Longitude>-1.476073</Longitude>
        <Latitude>52.854568</Latitude>
      </Location>
    </AnnotatedStopPointRef>
    <AnnotatedStopPointRef>
      <StopPointRef>100000008675</StopPointRef>
      <CommonName>Woodshop Lane</CommonName>
      <Location>
        <Longitude>-1.458076</Longitude>
        <Latitude>52.854442</Latitude>
      </Location>
    </AnnotatedStopPointRef>
    <AnnotatedStopPointRef>
      <StopPointRef>1000DBTS5057</StopPointRef>
      <CommonName>71 Swarkestone Road</CommonName>
      <Location>
        <Longitude>-1.471527</Longitude>
        <Latitude>52.853514</Latitude>
      </Location>
    </AnnotatedStopPointRef>
    <AnnotatedStopPointRef>
      <StopPointRef>1000DBTT5060</StopPointRef>
      <CommonName>Walnut Close</CommonName>
      <Location>
        <Longitude>-1.479518</Longitude>
        <Latitude>52.853343</Latitude>
      </Location>
    </AnnotatedStopPointRef>
    <AnnotatedStopPointRef>
      <StopPointRef>1000DBTT5061</StopPointRef>
      <CommonName>School</CommonName>
      <Location>
        <Longitude>-1.477455</Longitude>
        <Latitude>52.853280</Latitude>
      </Location>
    </AnnotatedStopPointRef>
    <AnnotatedStopPointRef>
      <StopPointRef>1000DBTS5059</StopPointRef>
      <CommonName>Sinfin Lane</CommonName>
      <Location>
        <Longitude>-1.474900</Longitude>
        <Latitude>52.854563</Latitude>
      </Location>
    </AnnotatedStopPointRef>
    <AnnotatedStopPointRef>
      <StopPointRef>1000DSAC3634</StopPointRef>
      <CommonName>Crewe And Harpur</CommonName>
      <Location>
        <Longitude>-1.453746</Longitude>
        <Latitude>52.853901</Latitude>
      </Location>
    </AnnotatedStopPointRef>
    <AnnotatedStopPointRef>
      <StopPointRef>1000DSAC3635</StopPointRef>
      <CommonName>Crewe And Harpur</CommonName>
      <Location>
        <Longitude>-1.453599</Longitude>
        <Latitude>52.853793</Latitude>
      </Location>
    </AnnotatedStopPointRef>
    <AnnotatedStopPointRef>
      <StopPointRef>1000DSBD3637</StopPointRef>
      <CommonName>Derby Road</CommonName>
      <Location>
        <Longitude>-1.447142</Longitude>
        <Latitude>52.840710</Latitude>
      </Location>
    </AnnotatedStopPointRef>
    <AnnotatedStopPointRef>
      <StopPointRef>1000DSBD3636</StopPointRef>
      <CommonName>Derby Road</CommonName>
      <Location>
        <Longitude>-1.447643</Longitude>
        <Latitude>52.841009</Latitude>
      </Location>
    </AnnotatedStopPointRef>
    <AnnotatedStopPointRef>
      <StopPointRef>1000DKNM5050</StopPointRef>
      <CommonName>Hill Top</CommonName>
      <Location>
        <Longitude>-1.438955</Longitude>
        <Latitude>52.832051</Latitude>
      </Location>
    </AnnotatedStopPointRef>
    <AnnotatedStopPointRef>
      <StopPointRef>1000DKNM5049</StopPointRef>
      <CommonName>Hill Top</CommonName>
      <Location>
        <Longitude>-1.438672</Longitude>
        <Latitude>52.832103</Latitude>
      </Location>
    </AnnotatedStopPointRef>
    <AnnotatedStopPointRef>
      <StopPointRef>1000DKNH5051</StopPointRef>
      <CommonName>Pack Horse Inn</CommonName>
      <Location>
        <Longitude>-1.430022</Longitude>
        <Latitude>52.831810</Latitude>
      </Location>
    </AnnotatedStopPointRef>
    <AnnotatedStopPointRef>
      <StopPointRef>100052324</StopPointRef>
      <CommonName>Derby Road</CommonName>
      <Location>
        <Longitude>-1.435674</Longitude>
        <Latitude>52.829752</Latitude>
      </Location>
    </AnnotatedStopPointRef>
    <AnnotatedStopPointRef>
      <StopPointRef>1000DMDR5068</StopPointRef>
      <CommonName>Quaker Close</CommonName>
      <Location>
        <Longitude>-1.434217</Longitude>
        <Latitude>52.828792</Latitude>
      </Location>
    </AnnotatedStopPointRef>
    <AnnotatedStopPointRef>
      <StopPointRef>1000DMPH5047</StopPointRef>
      <CommonName>Nettlefold Crescent</CommonName>
      <Location>
        <Longitude>-1.428430</Longitude>
        <Latitude>52.830949</Latitude>
      </Location>
    </AnnotatedStopPointRef>
    <AnnotatedStopPointRef>
      <StopPointRef>1000DMPH5045</StopPointRef>
      <CommonName>Queensway</CommonName>
      <Location>
        <Longitude>-1.427066</Longitude>
        <Latitude>52.828632</Latitude>
      </Location>
    </AnnotatedStopPointRef>
    <AnnotatedStopPointRef>
      <StopPointRef>1000DMDR5067</StopPointRef>
      <CommonName>Lampad Close</CommonName>
      <Location>
        <Longitude>-1.431731</Longitude>
        <Latitude>52.827126</Latitude>
      </Location>
    </AnnotatedStopPointRef>
    <AnnotatedStopPointRef>
      <StopPointRef>1000DMDR5066</StopPointRef>
      <CommonName>Coach House</CommonName>
      <Location>
        <Longitude>-1.429984</Longitude>
        <Latitude>52.825670</Latitude>
      </Location>
    </AnnotatedStopPointRef>
    <AnnotatedStopPointRef>
      <StopPointRef>100000018886</StopPointRef>
      <CommonName>Primary School</CommonName>
      <Location>
        <Longitude>-1.426918</Longitude>
        <Latitude>52.827462</Latitude>
      </Location>
    </AnnotatedStopPointRef>
    <AnnotatedStopPointRef>
      <StopPointRef>1000DMPR5043</StopPointRef>
      <CommonName>Pack Horse Road</CommonName>
      <Location>
        <Longitude>-1.427263</Longitude>
        <Latitude>52.826026</Latitude>
      </Location>
    </AnnotatedStopPointRef>
    <AnnotatedStopPointRef>
      <StopPointRef>1000DMMP1593</StopPointRef>
      <CommonName>Market Place</CommonName>
      <Location>
        <Longitude>-1.428581</Longitude>
        <Latitude>52.822877</Latitude>
      </Location>
    </AnnotatedStopPointRef>
    <AnnotatedStopPointRef>
      <StopPointRef>1000DMCS5041</StopPointRef>
      <CommonName>Jubilee Close</CommonName>
      <Location>
        <Longitude>-1.425440</Longitude>
        <Latitude>52.824704</Latitude>
      </Location>
    </AnnotatedStopPointRef>
    <AnnotatedStopPointRef>
      <StopPointRef>1000DMCS3550</StopPointRef>
      <CommonName>Market Place</CommonName>
      <Location>
        <Longitude>-1.428240</Longitude>
        <Latitude>52.822839</Latitude>
      </Location>
    </AnnotatedStopPointRef>
    <AnnotatedStopPointRef>
      <StopPointRef>1000DMCS5039</StopPointRef>
      <CommonName>Church Hall</CommonName>
      <Location>
        <Longitude>-1.424576</Longitude>
        <Latitude>52.821617</Latitude>
      </Location>
    </AnnotatedStopPointRef>
    <AnnotatedStopPointRef>
      <StopPointRef>1000DMCS5040</StopPointRef>
      <CommonName>Potter Street</CommonName>
      <Location>
        <Longitude>-1.424767</Longitude>
        <Latitude>52.822849</Latitude>
      </Location>
    </AnnotatedStopPointRef>
    <AnnotatedStopPointRef>
      <StopPointRef>1000DMAR5035</StopPointRef>
      <CommonName>Ashby Road</CommonName>
      <Location>
        <Longitude>-1.432230</Longitude>
        <Latitude>52.821824</Latitude>
      </Location>
    </AnnotatedStopPointRef>
    <AnnotatedStopPointRef>
      <StopPointRef>1000DMAR5033</StopPointRef>
      <CommonName>Melbourne Arms</CommonName>
      <Location>
        <Longitude>-1.434871</Longitude>
        <Latitude>52.819608</Latitude>
      </Location>
    </AnnotatedStopPointRef>
    <AnnotatedStopPointRef>
      <StopPointRef>1000DMRH5031</StopPointRef>
      <CommonName>Robinsons Hill</CommonName>
      <Location>
        <Longitude>-1.440082</Longitude>
        <Latitude>52.819399</Latitude>
      </Location>
    </AnnotatedStopPointRef>
    <AnnotatedStopPointRef>
      <StopPointRef>1000DMCM5030</StopPointRef>
      <CommonName>Bleak House</CommonName>
      <Location>
        <Longitude>-1.444602</Longitude>
        <Latitude>52.819887</Latitude>
      </Location>
    </AnnotatedStopPointRef>
    <AnnotatedStopPointRef>
      <StopPointRef>1000DMCM5029</StopPointRef>
      <CommonName>The Common</CommonName>
      <Location>
        <Longitude>-1.448140</Longitude>
        <Latitude>52.818169</Latitude>
      </Location>
    </AnnotatedStopPointRef>
    <AnnotatedStopPointRef>
      <StopPointRef>1000DMCM5028</StopPointRef>
      <CommonName>Bog Lane</CommonName>
      <Location>
        <Longitude>-1.451245</Longitude>
        <Latitude>52.816664</Latitude>
      </Location>
    </AnnotatedStopPointRef>
    <AnnotatedStopPointRef>
      <StopPointRef>1000DMCM5027</StopPointRef>
      <CommonName>Park Lea</CommonName>
      <Location>
        <Longitude>-1.456667</Longitude>
        <Latitude>52.814981</Latitude>
      </Location>
    </AnnotatedStopPointRef>
    <AnnotatedStopPointRef>
      <StopPointRef>100052328</StopPointRef>
      <CommonName>Cockshut Lane</CommonName>
      <Location>
        <Longitude>-1.437974</Longitude>
        <Latitude>52.825241</Latitude>
      </Location>
    </AnnotatedStopPointRef>
    <AnnotatedStopPointRef>
      <StopPointRef>1000DMCM5025</StopPointRef>
      <CommonName>Hemsley Barn Cottage</CommonName>
      <Location>
        <Longitude>-1.459226</Longitude>
        <Latitude>52.814417</Latitude>
      </Location>
    </AnnotatedStopPointRef>
    <AnnotatedStopPointRef>
      <StopPointRef>1000DMCM5024</StopPointRef>
      <CommonName>Broadstone Lane</CommonName>
      <Location>
        <Longitude>-1.463960</Longitude>
        <Latitude>52.813144</Latitude>
      </Location>
    </AnnotatedStopPointRef>
    <AnnotatedStopPointRef>
      <StopPointRef>100000008691</StopPointRef>
      <CommonName>Bog Lane</CommonName>
      <Location>
        <Longitude>-1.450946</Longitude>
        <Latitude>52.816887</Latitude>
      </Location>
    </AnnotatedStopPointRef>
    <AnnotatedStopPointRef>
      <StopPointRef>1000DTMS5022</StopPointRef>
      <CommonName>The Common</CommonName>
      <Location>
        <Longitude>-1.467646</Longitude>
        <Latitude>52.812612</Latitude>
      </Location>
    </AnnotatedStopPointRef>
    <AnnotatedStopPointRef>
      <StopPointRef>1000DTMS5020</StopPointRef>
      <CommonName>Calke Abbey Entrance</CommonName>
      <Location>
        <Longitude>-1.471329</Longitude>
        <Latitude>52.812296</Latitude>
      </Location>
    </AnnotatedStopPointRef>
    <AnnotatedStopPointRef>
      <StopPointRef>100000008688</StopPointRef>
      <CommonName>Park Lea</CommonName>
      <Location>
        <Longitude>-1.456711</Longitude>
        <Latitude>52.815044</Latitude>
      </Location>
    </AnnotatedStopPointRef>
    <AnnotatedStopPointRef>
      <StopPointRef>1000DMCM5026</StopPointRef>
      <CommonName>Hemsley Barn Cottage</CommonName>
      <Location>
        <Longitude>-1.459270</Longitude>
        <Latitude>52.814471</Latitude>
      </Location>
    </AnnotatedStopPointRef>
    <AnnotatedStopPointRef>
      <StopPointRef>1000DTMS5017</StopPointRef>
      <CommonName>Ingleby Lane</CommonName>
      <Location>
        <Longitude>-1.476466</Longitude>
        <Latitude>52.812004</Latitude>
      </Location>
    </AnnotatedStopPointRef>
    <AnnotatedStopPointRef>
      <StopPointRef>1000DTMSC938</StopPointRef>
      <CommonName>Church Lane</CommonName>
      <Location>
        <Longitude>-1.480241</Longitude>
        <Latitude>52.811446</Latitude>
      </Location>
    </AnnotatedStopPointRef>
    <AnnotatedStopPointRef>
      <StopPointRef>100000008689</StopPointRef>
      <CommonName>Broadstone Lane</CommonName>
      <Location>
        <Longitude>-1.463960</Longitude>
        <Latitude>52.813189</Latitude>
      </Location>
    </AnnotatedStopPointRef>
    <AnnotatedStopPointRef>
      <StopPointRef>1000DTMS5023</StopPointRef>
      <CommonName>The Common</CommonName>
      <Location>
        <Longitude>-1.468075</Longitude>
        <Latitude>52.812731</Latitude>
      </Location>
    </AnnotatedStopPointRef>
    <AnnotatedStopPointRef>
      <StopPointRef>1000DTHS5013</StopPointRef>
      <CommonName>High Street</CommonName>
      <Location>
        <Longitude>-1.481954</Longitude>
        <Latitude>52.809664</Latitude>
      </Location>
    </AnnotatedStopPointRef>
    <AnnotatedStopPointRef>
      <StopPointRef>100000008687</StopPointRef>
      <CommonName>Ashby Road</CommonName>
      <Location>
        <Longitude>-1.483020</Longitude>
        <Latitude>52.807340</Latitude>
      </Location>
    </AnnotatedStopPointRef>
    <AnnotatedStopPointRef>
      <StopPointRef>1000DTMS5021</StopPointRef>
      <CommonName>Calke Abbey Entrance</CommonName>
      <Location>
        <Longitude>-1.472173</Longitude>
        <Latitude>52.812444</Latitude>
      </Location>
    </AnnotatedStopPointRef>
    <AnnotatedStopPointRef>
      <StopPointRef>1000DTMS5018</StopPointRef>
      <CommonName>Ingleby Lane</CommonName>
      <Location>
        <Longitude>-1.476866</Longitude>
        <Latitude>52.812051</Latitude>
      </Location>
    </AnnotatedStopPointRef>
    <AnnotatedStopPointRef>
      <StopPointRef>100052980</StopPointRef>
      <CommonName>Tichenhalle Barn</CommonName>
      <Location>
        <Longitude>-1.483687</Longitude>
        <Latitude>52.804907</Latitude>
      </Location>
    </AnnotatedStopPointRef>
    <AnnotatedStopPointRef>
      <StopPointRef>1000DTDR5009</StopPointRef>
      <CommonName>Staunton Lane</CommonName>
      <Location>
        <Longitude>-1.485596</Longitude>
        <Latitude>52.800259</Latitude>
      </Location>
    </AnnotatedStopPointRef>
    <AnnotatedStopPointRef>
      <StopPointRef>1000DTMS1594</StopPointRef>
      <CommonName>Church Lane</CommonName>
      <Location>
        <Longitude>-1.479958</Longitude>
        <Latitude>52.811525</Latitude>
      </Location>
    </AnnotatedStopPointRef>
    <AnnotatedStopPointRef>
      <StopPointRef>1000DTHS5014</StopPointRef>
      <CommonName>High Street</CommonName>
      <Location>
        <Longitude>-1.482058</Longitude>
        <Latitude>52.809620</Latitude>
      </Location>
    </AnnotatedStopPointRef>
    <AnnotatedStopPointRef>
      <StopPointRef>100000008719</StopPointRef>
      <CommonName>Coal Lane East End</CommonName>
      <Location>
        <Longitude>-1.490196</Longitude>
        <Latitude>52.793707</Latitude>
      </Location>
    </AnnotatedStopPointRef>
    <AnnotatedStopPointRef>
      <StopPointRef>1000DTAR5012</StopPointRef>
      <CommonName>Ashby Road</CommonName>
      <Location>
        <Longitude>-1.483108</Longitude>
        <Latitude>52.807377</Latitude>
      </Location>
    </AnnotatedStopPointRef>
    <AnnotatedStopPointRef>
      <StopPointRef>1000DTDR5010</StopPointRef>
      <CommonName>Staunton Lane</CommonName>
      <Location>
        <Longitude>-1.485669</Longitude>
        <Latitude>52.800286</Latitude>
      </Location>
    </AnnotatedStopPointRef>
    <AnnotatedStopPointRef>
      <StopPointRef>100000008718</StopPointRef>
      <CommonName>Coal Lane East End</CommonName>
      <Location>
        <Longitude>-1.490240</Longitude>
        <Latitude>52.793762</Latitude>
      </Location>
    </AnnotatedStopPointRef>
    <AnnotatedStopPointRef>
      <StopPointRef>100000008686</StopPointRef>
      <CommonName>Coal Lane West End</CommonName>
      <Location>
        <Longitude>-1.505874</Longitude>
        <Latitude>52.794736</Latitude>
      </Location>
    </AnnotatedStopPointRef>
    <AnnotatedStopPointRef>
      <StopPointRef>100000008685</StopPointRef>
      <CommonName>Coal Lane West End</CommonName>
      <Location>
        <Longitude>-1.505905</Longitude>
        <Latitude>52.794691</Latitude>
      </Location>
    </AnnotatedStopPointRef>
    <AnnotatedStopPointRef>
      <StopPointRef>100000008712</StopPointRef>
      <CommonName>Ticknall Road 147</CommonName>
      <Location>
        <Longitude>-1.513425</Longitude>
        <Latitude>52.790605</Latitude>
      </Location>
    </AnnotatedStopPointRef>
    <AnnotatedStopPointRef>
      <StopPointRef>100000008713</StopPointRef>
      <CommonName>Ticknall Road 147</CommonName>
      <Location>
        <Longitude>-1.513663</Longitude>
        <Latitude>52.790534</Latitude>
      </Location>
    </AnnotatedStopPointRef>
    <AnnotatedStopPointRef>
      <StopPointRef>100000008715</StopPointRef>
      <CommonName>Old Mill Wheel</CommonName>
      <Location>
        <Longitude>-1.518458</Longitude>
        <Latitude>52.788683</Latitude>
      </Location>
    </AnnotatedStopPointRef>
    <AnnotatedStopPointRef>
      <StopPointRef>100000008714</StopPointRef>
      <CommonName>Old Mill Wheel</CommonName>
      <Location>
        <Longitude>-1.518746</Longitude>
        <Latitude>52.788145</Latitude>
      </Location>
    </AnnotatedStopPointRef>
    <AnnotatedStopPointRef>
      <StopPointRef>100000008716</StopPointRef>
      <CommonName>Repton Road</CommonName>
      <Location>
        <Longitude>-1.519418</Longitude>
        <Latitude>52.786305</Latitude>
      </Location>
    </AnnotatedStopPointRef>
    <AnnotatedStopPointRef>
      <StopPointRef>100000008717</StopPointRef>
      <CommonName>Repton Road</CommonName>
      <Location>
        <Longitude>-1.519611</Longitude>
        <Latitude>52.786288</Latitude>
      </Location>
    </AnnotatedStopPointRef>
    <AnnotatedStopPointRef>
      <StopPointRef>1000DHMS4817</StopPointRef>
      <CommonName>Church Street</CommonName>
      <Location>
        <Longitude>-1.517620</Longitude>
        <Latitude>52.783978</Latitude>
      </Location>
    </AnnotatedStopPointRef>
    <AnnotatedStopPointRef>
      <StopPointRef>1000DHMS1595</StopPointRef>
      <CommonName>Church Street</CommonName>
      <Location>
        <Longitude>-1.517106</Longitude>
        <Latitude>52.783563</Latitude>
      </Location>
    </AnnotatedStopPointRef>
    <AnnotatedStopPointRef>
      <StopPointRef>1000DHWR4865</StopPointRef>
      <CommonName>Tower Road</CommonName>
      <Location>
        <Longitude>-1.522075</Longitude>
        <Latitude>52.780661</Latitude>
      </Location>
    </AnnotatedStopPointRef>
    <AnnotatedStopPointRef>
      <StopPointRef>1000DHWR4864</StopPointRef>
      <CommonName>Tower Road</CommonName>
      <Location>
        <Longitude>-1.521939</Longitude>
        <Latitude>52.780912</Latitude>
      </Location>
    </AnnotatedStopPointRef>
    <AnnotatedStopPointRef>
      <StopPointRef>1000DWWR4866</StopPointRef>
      <CommonName>Woodville Road 143</CommonName>
      <Location>
        <Longitude>-1.524158</Longitude>
        <Latitude>52.778629</Latitude>
      </Location>
    </AnnotatedStopPointRef>
    <AnnotatedStopPointRef>
      <StopPointRef>1000DWWR4867</StopPointRef>
      <CommonName>Woodville Road 143</CommonName>
      <Location>
        <Longitude>-1.524414</Longitude>
        <Latitude>52.778225</Latitude>
      </Location>
    </AnnotatedStopPointRef>
    <AnnotatedStopPointRef>
      <StopPointRef>1000DGEG4825</StopPointRef>
      <CommonName>Goseley Avenue</CommonName>
      <Location>
        <Longitude>-1.525391</Longitude>
        <Latitude>52.775640</Latitude>
      </Location>
    </AnnotatedStopPointRef>
    <AnnotatedStopPointRef>
      <StopPointRef>1000DWWR4868</StopPointRef>
      <CommonName>Woodville Road Goseley</CommonName>
      <Location>
        <Longitude>-1.525971</Longitude>
        <Latitude>52.776856</Latitude>
      </Location>
    </AnnotatedStopPointRef>
    <AnnotatedStopPointRef>
      <StopPointRef>1000DGEGA404</StopPointRef>
      <CommonName>Goseley Avenue</CommonName>
      <Location>
        <Longitude>-1.524025</Longitude>
        <Latitude>52.774493</Latitude>
      </Location>
    </AnnotatedStopPointRef>
    <AnnotatedStopPointRef>
      <StopPointRef>1000DGEB1596</StopPointRef>
      <CommonName>Brookdale Road</CommonName>
      <Location>
        <Longitude>-1.527136</Longitude>
        <Latitude>52.773292</Latitude>
      </Location>
    </AnnotatedStopPointRef>
    <AnnotatedStopPointRef>
      <StopPointRef>1000DGEE4823</StopPointRef>
      <CommonName>Elmsdale Road</CommonName>
      <Location>
        <Longitude>-1.524383</Longitude>
        <Latitude>52.771600</Latitude>
      </Location>
    </AnnotatedStopPointRef>
    <AnnotatedStopPointRef>
      <StopPointRef>1000DGEE4824</StopPointRef>
      <CommonName>Hartshill Road</CommonName>
      <Location>
        <Longitude>-1.523691</Longitude>
        <Latitude>52.772505</Latitude>
      </Location>
    </AnnotatedStopPointRef>
    <AnnotatedStopPointRef>
      <StopPointRef>1000DWWR4826</StopPointRef>
      <CommonName>Woodville Road Goseley</CommonName>
      <Location>
        <Longitude>-1.527591</Longitude>
        <Latitude>52.775137</Latitude>
      </Location>
    </AnnotatedStopPointRef>
    <AnnotatedStopPointRef>
      <StopPointRef>1000DWWR4820</StopPointRef>
      <CommonName>The Cutting</CommonName>
      <Location>
        <Longitude>-1.528953</Longitude>
        <Latitude>52.773884</Latitude>
      </Location>
    </AnnotatedStopPointRef>
    <AnnotatedStopPointRef>
      <StopPointRef>1000DWHR4818</StopPointRef>
      <CommonName>Falcon Way</CommonName>
      <Location>
        <Longitude>-1.531135</Longitude>
        <Latitude>52.772211</Latitude>
      </Location>
    </AnnotatedStopPointRef>
    <AnnotatedStopPointRef>
      <StopPointRef>1000DWTG3626</StopPointRef>
      <CommonName>Swallow Road</CommonName>
      <Location>
        <Longitude>-1.533616</Longitude>
        <Latitude>52.770324</Latitude>
      </Location>
    </AnnotatedStopPointRef>
    <AnnotatedStopPointRef>
      <StopPointRef>1000DWTG3624</StopPointRef>
      <CommonName>Toll Gate</CommonName>
      <Location>
        <Longitude>-1.535632</Longitude>
        <Latitude>52.770269</Latitude>
      </Location>
    </AnnotatedStopPointRef>
    <AnnotatedStopPointRef>
      <StopPointRef>1000DWTG3622</StopPointRef>
      <CommonName>Toll Gate</CommonName>
      <Location>
        <Longitude>-1.535803</Longitude>
        <Latitude>52.769506</Latitude>
      </Location>
    </AnnotatedStopPointRef>
    <AnnotatedStopPointRef>
      <StopPointRef>1000DWSF4811</StopPointRef>
      <CommonName>Frederick Street</CommonName>
      <Location>
        <Longitude>-1.540920</Longitude>
        <Latitude>52.769193</Latitude>
      </Location>
    </AnnotatedStopPointRef>
    <AnnotatedStopPointRef>
      <StopPointRef>1000DSSB4809</StopPointRef>
      <CommonName>Woodhouse Street</CommonName>
      <Location>
        <Longitude>-1.544580</Longitude>
        <Latitude>52.769324</Latitude>
      </Location>
    </AnnotatedStopPointRef>
    <AnnotatedStopPointRef>
      <StopPointRef>1000DSDR4802</StopPointRef>
      <CommonName>Ski Centre</CommonName>
      <Location>
        <Longitude>-1.549967</Longitude>
        <Latitude>52.770082</Latitude>
      </Location>
    </AnnotatedStopPointRef>
    <AnnotatedStopPointRef>
      <StopPointRef>1000DWBR4815</StopPointRef>
      <CommonName>Cricket Ground</CommonName>
      <Location>
        <Longitude>-1.537408</Longitude>
        <Latitude>52.771894</Latitude>
      </Location>
    </AnnotatedStopPointRef>
    <AnnotatedStopPointRef>
      <StopPointRef>1000DWBR4816</StopPointRef>
      <CommonName>Granville Community School</CommonName>
      <Location>
        <Longitude>-1.538600</Longitude>
        <Latitude>52.775558</Latitude>
      </Location>
    </AnnotatedStopPointRef>
    <AnnotatedStopPointRef>
      <StopPointRef>1000DMBR4765</StopPointRef>
      <CommonName>Lincoln Way</CommonName>
      <Location>
        <Longitude>-1.540372</Longitude>
        <Latitude>52.777605</Latitude>
      </Location>
    </AnnotatedStopPointRef>
    <AnnotatedStopPointRef>
      <StopPointRef>1000DMER4748</StopPointRef>
      <CommonName>Eureka Road</CommonName>
      <Location>
        <Longitude>-1.544222</Longitude>
        <Latitude>52.779490</Latitude>
      </Location>
    </AnnotatedStopPointRef>
    <AnnotatedStopPointRef>
      <StopPointRef>1000DMER4745</StopPointRef>
      <CommonName>James Street</CommonName>
      <Location>
        <Longitude>-1.549069</Longitude>
        <Latitude>52.779580</Latitude>
      </Location>
    </AnnotatedStopPointRef>
    <AnnotatedStopPointRef>
      <StopPointRef>1000DMMR4743</StopPointRef>
      <CommonName>Mill Close</CommonName>
      <Location>
        <Longitude>-1.550806</Longitude>
        <Latitude>52.779326</Latitude>
      </Location>
    </AnnotatedStopPointRef>
    <AnnotatedStopPointRef>
      <StopPointRef>1000DSMR4742</StopPointRef>
      <CommonName>Railway Inn</CommonName>
      <Location>
        <Longitude>-1.551621</Longitude>
        <Latitude>52.777891</Latitude>
      </Location>
    </AnnotatedStopPointRef>
    <AnnotatedStopPointRef>
      <StopPointRef>1000DSCS4805</StopPointRef>
      <CommonName>Belmont Primary School</CommonName>
      <Location>
        <Longitude>-1.551465</Longitude>
        <Latitude>52.775769</Latitude>
      </Location>
    </AnnotatedStopPointRef>
    <AnnotatedStopPointRef>
      <StopPointRef>1000DSCS4803</StopPointRef>
      <CommonName>Church</CommonName>
      <Location>
        <Longitude>-1.552465</Longitude>
        <Latitude>52.773624</Latitude>
      </Location>
    </AnnotatedStopPointRef>
    <AnnotatedStopPointRef>
      <StopPointRef>1000DWWR4821</StopPointRef>
      <CommonName>The Cutting</CommonName>
      <Location>
        <Longitude>-1.528473</Longitude>
        <Latitude>52.774439</Latitude>
      </Location>
    </AnnotatedStopPointRef>
    <AnnotatedStopPointRef>
      <StopPointRef>1000DSCW4806</StopPointRef>
      <CommonName>Civic Way</CommonName>
      <Location>
        <Longitude>-1.554033</Longitude>
        <Latitude>52.773954</Latitude>
      </Location>
    </AnnotatedStopPointRef>
    <AnnotatedStopPointRef>
      <StopPointRef>1000DWHR4819</StopPointRef>
      <CommonName>Falcon Way</CommonName>
      <Location>
        <Longitude>-1.530925</Longitude>
        <Latitude>52.772498</Latitude>
      </Location>
    </AnnotatedStopPointRef>
    <AnnotatedStopPointRef>
      <StopPointRef>1000DSBS1931</StopPointRef>
      <CommonName>Bus Station</CommonName>
      <Location>
        <Longitude>-1.558624</Longitude>
        <Latitude>52.774700</Latitude>
      </Location>
    </AnnotatedStopPointRef>
    <AnnotatedStopPointRef>
      <StopPointRef>1000DWTG3625</StopPointRef>
      <CommonName>Swallow Road</CommonName>
      <Location>
        <Longitude>-1.533913</Longitude>
        <Latitude>52.770226</Latitude>
      </Location>
    </AnnotatedStopPointRef>
    <AnnotatedStopPointRef>
      <StopPointRef>1000DWBR4822</StopPointRef>
      <CommonName>Cricket Ground</CommonName>
      <Location>
        <Longitude>-1.536763</Longitude>
        <Latitude>52.771298</Latitude>
      </Location>
    </AnnotatedStopPointRef>
    <AnnotatedStopPointRef>
      <StopPointRef>1000DWBR4814</StopPointRef>
      <CommonName>Granville Community School</CommonName>
      <Location>
        <Longitude>-1.538520</Longitude>
        <Latitude>52.776106</Latitude>
      </Location>
    </AnnotatedStopPointRef>
    <AnnotatedStopPointRef>
      <StopPointRef>1000DMBR4764</StopPointRef>
      <CommonName>Lincoln Way</CommonName>
      <Location>
        <Longitude>-1.539945</Longitude>
        <Latitude>52.777388</Latitude>
      </Location>
    </AnnotatedStopPointRef>
    <AnnotatedStopPointRef>
      <StopPointRef>1000DMBR4749</StopPointRef>
      <CommonName>Dunsmore Way</CommonName>
      <Location>
        <Longitude>-1.543038</Longitude>
        <Latitude>52.779279</Latitude>
      </Location>
    </AnnotatedStopPointRef>
    <AnnotatedStopPointRef>
      <StopPointRef>1000DMER4747</StopPointRef>
      <CommonName>Eureka Road</CommonName>
      <Location>
        <Longitude>-1.544547</Longitude>
        <Latitude>52.779545</Latitude>
      </Location>
    </AnnotatedStopPointRef>
    <AnnotatedStopPointRef>
      <StopPointRef>1000DMER4746</StopPointRef>
      <CommonName>James Street</CommonName>
      <Location>
        <Longitude>-1.548446</Longitude>
        <Latitude>52.779587</Latitude>
      </Location>
    </AnnotatedStopPointRef>
    <AnnotatedStopPointRef>
      <StopPointRef>1000DMMR4744</StopPointRef>
      <CommonName>Mill Close</CommonName>
      <Location>
        <Longitude>-1.550653</Longitude>
        <Latitude>52.779712</Latitude>
      </Location>
    </AnnotatedStopPointRef>
    <AnnotatedStopPointRef>
      <StopPointRef>1000DSMR4741</StopPointRef>
      <CommonName>Railway Inn</CommonName>
      <Location>
        <Longitude>-1.551999</Longitude>
        <Latitude>52.777173</Latitude>
      </Location>
    </AnnotatedStopPointRef>
    <AnnotatedStopPointRef>
      <StopPointRef>1000DWSF4812</StopPointRef>
      <CommonName>Frederick Street</CommonName>
      <Location>
        <Longitude>-1.539258</Longitude>
        <Latitude>52.769357</Latitude>
      </Location>
    </AnnotatedStopPointRef>
    <AnnotatedStopPointRef>
      <StopPointRef>1000DSDR4808</StopPointRef>
      <CommonName>Woodhouse Street</CommonName>
      <Location>
        <Longitude>-1.545970</Longitude>
        <Latitude>52.769563</Latitude>
      </Location>
    </AnnotatedStopPointRef>
    <AnnotatedStopPointRef>
      <StopPointRef>1000DSDF4810</StopPointRef>
      <CommonName>Ski Centre</CommonName>
      <Location>
        <Longitude>-1.551428</Longitude>
        <Latitude>52.772155</Latitude>
      </Location>
    </AnnotatedStopPointRef>
    <AnnotatedStopPointRef>
      <StopPointRef>1000DSCS4804</StopPointRef>
      <CommonName>Church</CommonName>
      <Location>
        <Longitude>-1.552072</Longitude>
        <Latitude>52.774369</Latitude>
      </Location>
    </AnnotatedStopPointRef>
    <AnnotatedStopPointRef>
      <StopPointRef>1000DSCW4807</StopPointRef>
      <CommonName>Civic Way</CommonName>
      <Location>
        <Longitude>-1.554460</Longitude>
        <Latitude>52.774288</Latitude>
      </Location>
    </AnnotatedStopPointRef>
  </StopPoints>
  <RouteSections>
    <RouteSection id="rsf_0000">
      <RouteLink id="rl_0000_1">
        <From>
          <StopPointRef>109000022193</StopPointRef>
        </From>
        <To>
          <StopPointRef>109000022386</StopPointRef>
        </To>
      </RouteLink>
      <RouteLink id="rl_0000_2">
        <From>
          <StopPointRef>109000022386</StopPointRef>
        </From>
        <To>
          <StopPointRef>109000022384</StopPointRef>
        </To>
      </RouteLink>
      <RouteLink id="rl_0000_3">
        <From>
          <StopPointRef>109000022384</StopPointRef>
        </From>
        <To>
          <StopPointRef>109000022383</StopPointRef>
        </To>
      </RouteLink>
      <RouteLink id="rl_0000_4">
        <From>
          <StopPointRef>109000022383</StopPointRef>
        </From>
        <To>
          <StopPointRef>109000022385</StopPointRef>
        </To>
      </RouteLink>
      <RouteLink id="rl_0000_5">
        <From>
          <StopPointRef>109000022385</StopPointRef>
        </From>
        <To>
          <StopPointRef>109000022194</StopPointRef>
        </To>
      </RouteLink>
      <RouteLink id="rl_0000_6">
        <From>
          <StopPointRef>109000022194</StopPointRef>
        </From>
        <To>
          <StopPointRef>109000022387</StopPointRef>
        </To>
      </RouteLink>
      <RouteLink id="rl_0000_7">
        <From>
          <StopPointRef>109000022387</StopPointRef>
        </From>
        <To>
          <StopPointRef>109000022390</StopPointRef>
        </To>
      </RouteLink>
      <RouteLink id="rl_0000_8">
        <From>
          <StopPointRef>109000022390</StopPointRef>
        </From>
        <To>
          <StopPointRef>109000022392</StopPointRef>
        </To>
      </RouteLink>
      <RouteLink id="rl_0000_9">
        <From>
          <StopPointRef>109000022392</StopPointRef>
        </From>
        <To>
          <StopPointRef>109000022245</StopPointRef>
        </To>
      </RouteLink>
      <RouteLink id="rl_0000_10">
        <From>
          <StopPointRef>109000022245</StopPointRef>
        </From>
        <To>
          <StopPointRef>109000009935</StopPointRef>
        </To>
      </RouteLink>
      <RouteLink id="rl_0000_11">
        <From>
          <StopPointRef>109000009935</StopPointRef>
        </From>
        <To>
          <StopPointRef>109000009799</StopPointRef>
        </To>
      </RouteLink>
      <RouteLink id="rl_0000_12">
        <From>
          <StopPointRef>109000009799</StopPointRef>
        </From>
        <To>
          <StopPointRef>109000009795</StopPointRef>
        </To>
      </RouteLink>
      <RouteLink id="rl_0000_13">
        <From>
          <StopPointRef>109000009795</StopPointRef>
        </From>
        <To>
          <StopPointRef>109000009800</StopPointRef>
        </To>
      </RouteLink>
      <RouteLink id="rl_0000_14">
        <From>
          <StopPointRef>109000009800</StopPointRef>
        </From>
        <To>
          <StopPointRef>109000009872</StopPointRef>
        </To>
      </RouteLink>
      <RouteLink id="rl_0000_15">
        <From>
          <StopPointRef>109000009872</StopPointRef>
        </From>
        <To>
          <StopPointRef>109000009874</StopPointRef>
        </To>
      </RouteLink>
      <RouteLink id="rl_0000_16">
        <From>
          <StopPointRef>109000009874</StopPointRef>
        </From>
        <To>
          <StopPointRef>109000009815</StopPointRef>
        </To>
      </RouteLink>
      <RouteLink id="rl_0000_17">
        <From>
          <StopPointRef>109000009815</StopPointRef>
        </From>
        <To>
          <StopPointRef>109000009817</StopPointRef>
        </To>
      </RouteLink>
      <RouteLink id="rl_0000_18">
        <From>
          <StopPointRef>109000009817</StopPointRef>
        </From>
        <To>
          <StopPointRef>109000009813</StopPointRef>
        </To>
      </RouteLink>
      <RouteLink id="rl_0000_19">
        <From>
          <StopPointRef>109000009813</StopPointRef>
        </From>
        <To>
          <StopPointRef>109000009811</StopPointRef>
        </To>
      </RouteLink>
      <RouteLink id="rl_0000_20">
        <From>
          <StopPointRef>109000009811</StopPointRef>
        </From>
        <To>
          <StopPointRef>109000009808</StopPointRef>
        </To>
      </RouteLink>
      <RouteLink id="rl_0000_21">
        <From>
          <StopPointRef>109000009808</StopPointRef>
        </From>
        <To>
          <StopPointRef>109000009806</StopPointRef>
        </To>
      </RouteLink>
      <RouteLink id="rl_0000_22">
        <From>
          <StopPointRef>109000009806</StopPointRef>
        </From>
        <To>
          <StopPointRef>109000009804</StopPointRef>
        </To>
      </RouteLink>
      <RouteLink id="rl_0000_23">
        <From>
          <StopPointRef>109000009804</StopPointRef>
        </From>
        <To>
          <StopPointRef>109000009855</StopPointRef>
        </To>
      </RouteLink>
      <RouteLink id="rl_0000_24">
        <From>
          <StopPointRef>109000009855</StopPointRef>
        </From>
        <To>
          <StopPointRef>109000009853</StopPointRef>
        </To>
      </RouteLink>
      <RouteLink id="rl_0000_25">
        <From>
          <StopPointRef>109000009853</StopPointRef>
        </From>
        <To>
          <StopPointRef>109000009852</StopPointRef>
        </To>
      </RouteLink>
      <RouteLink id="rl_0000_26">
        <From>
          <StopPointRef>109000009852</StopPointRef>
        </From>
        <To>
          <StopPointRef>109000009767</StopPointRef>
        </To>
      </RouteLink>
      <RouteLink id="rl_0000_27">
        <From>
          <StopPointRef>109000009767</StopPointRef>
        </From>
        <To>
          <StopPointRef>109000009760</StopPointRef>
        </To>
      </RouteLink>
      <RouteLink id="rl_0000_28">
        <From>
          <StopPointRef>109000009760</StopPointRef>
        </From>
        <To>
          <StopPointRef>109000009777</StopPointRef>
        </To>
      </RouteLink>
      <RouteLink id="rl_0000_29">
        <From>
          <StopPointRef>109000009777</StopPointRef>
        </From>
        <To>
          <StopPointRef>109000009780</StopPointRef>
        </To>
      </RouteLink>
      <RouteLink id="rl_0000_30">
        <From>
          <StopPointRef>109000009780</StopPointRef>
        </From>
        <To>
          <StopPointRef>109000009782</StopPointRef>
        </To>
      </RouteLink>
      <RouteLink id="rl_0000_31">
        <From>
          <StopPointRef>109000009782</StopPointRef>
        </From>
        <To>
          <StopPointRef>109000009353</StopPointRef>
        </To>
      </RouteLink>
      <RouteLink id="rl_0000_32">
        <From>
          <StopPointRef>109000009353</StopPointRef>
        </From>
        <To>
          <StopPointRef>109000009357</StopPointRef>
        </To>
      </RouteLink>
      <RouteLink id="rl_0000_33">
        <From>
          <StopPointRef>109000009357</StopPointRef>
        </From>
        <To>
          <StopPointRef>109000009359</StopPointRef>
        </To>
      </RouteLink>
      <RouteLink id="rl_0000_34">
        <From>
          <StopPointRef>109000009359</StopPointRef>
        </From>
        <To>
          <StopPointRef>109000009299</StopPointRef>
        </To>
      </RouteLink>
      <RouteLink id="rl_0000_35">
        <From>
          <StopPointRef>109000009299</StopPointRef>
        </From>
        <To>
          <StopPointRef>109000009374</StopPointRef>
        </To>
      </RouteLink>
      <RouteLink id="rl_0000_36">
        <From>
          <StopPointRef>109000009374</StopPointRef>
        </From>
        <To>
          <StopPointRef>109000009300</StopPointRef>
        </To>
      </RouteLink>
      <RouteLink id="rl_0000_37">
        <From>
          <StopPointRef>109000009300</StopPointRef>
        </From>
        <To>
          <StopPointRef>1090DDRS1339</StopPointRef>
        </To>
      </RouteLink>
      <RouteLink id="rl_0000_38">
        <From>
          <StopPointRef>1090DDRS1339</StopPointRef>
        </From>
        <To>
          <StopPointRef>109000009369</StopPointRef>
        </To>
      </RouteLink>
      <RouteLink id="rl_0000_39">
        <From>
          <StopPointRef>109000009369</StopPointRef>
        </From>
        <To>
          <StopPointRef>109052310</StopPointRef>
        </To>
      </RouteLink>
      <RouteLink id="rl_0000_40">
        <From>
          <StopPointRef>109052310</StopPointRef>
        </From>
        <To>
          <StopPointRef>1090BSTN18</StopPointRef>
        </To>
      </RouteLink>
    </RouteSection>
    <RouteSection id="rsf_0001">
      <RouteLink id="rl_0001_1">
        <From>
          <StopPointRef>109052234</StopPointRef>
        </From>
        <To>
          <StopPointRef>109052235</StopPointRef>
        </To>
      </RouteLink>
      <RouteLink id="rl_0001_2">
        <From>
          <StopPointRef>109052235</StopPointRef>
        </From>
        <To>
          <StopPointRef>109000009935</StopPointRef>
        </To>
      </RouteLink>
      <RouteLink id="rl_0001_3">
        <From>
          <StopPointRef>109000009935</StopPointRef>
        </From>
        <To>
          <StopPointRef>109000009799</StopPointRef>
        </To>
      </RouteLink>
      <RouteLink id="rl_0001_4">
        <From>
          <StopPointRef>109000009799</StopPointRef>
        </From>
        <To>
          <StopPointRef>109000009795</StopPointRef>
        </To>
      </RouteLink>
      <RouteLink id="rl_0001_5">
        <From>
          <StopPointRef>109000009795</StopPointRef>
        </From>
        <To>
          <StopPointRef>109000009800</StopPointRef>
        </To>
      </RouteLink>
      <RouteLink id="rl_0001_6">
        <From>
          <StopPointRef>109000009800</StopPointRef>
        </From>
        <To>
          <StopPointRef>109000009872</StopPointRef>
        </To>
      </RouteLink>
      <RouteLink id="rl_0001_7">
        <From>
          <StopPointRef>109000009872</StopPointRef>
        </From>
        <To>
          <StopPointRef>109000009874</StopPointRef>
        </To>
      </RouteLink>
      <RouteLink id="rl_0001_8">
        <From>
          <StopPointRef>109000009874</StopPointRef>
        </From>
        <To>
          <StopPointRef>109000009815</StopPointRef>
        </To>
      </RouteLink>
      <RouteLink id="rl_0001_9">
        <From>
          <StopPointRef>109000009815</StopPointRef>
        </From>
        <To>
          <StopPointRef>109000009817</StopPointRef>
        </To>
      </RouteLink>
      <RouteLink id="rl_0001_10">
        <From>
          <StopPointRef>109000009817</StopPointRef>
        </From>
        <To>
          <StopPointRef>109000009813</StopPointRef>
        </To>
      </RouteLink>
      <RouteLink id="rl_0001_11">
        <From>
          <StopPointRef>109000009813</StopPointRef>
        </From>
        <To>
          <StopPointRef>109000009811</StopPointRef>
        </To>
      </RouteLink>
      <RouteLink id="rl_0001_12">
        <From>
          <StopPointRef>109000009811</StopPointRef>
        </From>
        <To>
          <StopPointRef>109000009808</StopPointRef>
        </To>
      </RouteLink>
      <RouteLink id="rl_0001_13">
        <From>
          <StopPointRef>109000009808</StopPointRef>
        </From>
        <To>
          <StopPointRef>109000009806</StopPointRef>
        </To>
      </RouteLink>
      <RouteLink id="rl_0001_14">
        <From>
          <StopPointRef>109000009806</StopPointRef>
        </From>
        <To>
          <StopPointRef>109000009804</StopPointRef>
        </To>
      </RouteLink>
      <RouteLink id="rl_0001_15">
        <From>
          <StopPointRef>109000009804</StopPointRef>
        </From>
        <To>
          <StopPointRef>109000009855</StopPointRef>
        </To>
      </RouteLink>
      <RouteLink id="rl_0001_16">
        <From>
          <StopPointRef>109000009855</StopPointRef>
        </From>
        <To>
          <StopPointRef>109000009853</StopPointRef>
        </To>
      </RouteLink>
      <RouteLink id="rl_0001_17">
        <From>
          <StopPointRef>109000009853</StopPointRef>
        </From>
        <To>
          <StopPointRef>109000009852</StopPointRef>
        </To>
      </RouteLink>
      <RouteLink id="rl_0001_18">
        <From>
          <StopPointRef>109000009852</StopPointRef>
        </From>
        <To>
          <StopPointRef>109000009767</StopPointRef>
        </To>
      </RouteLink>
      <RouteLink id="rl_0001_19">
        <From>
          <StopPointRef>109000009767</StopPointRef>
        </From>
        <To>
          <StopPointRef>109000009760</StopPointRef>
        </To>
      </RouteLink>
      <RouteLink id="rl_0001_20">
        <From>
          <StopPointRef>109000009760</StopPointRef>
        </From>
        <To>
          <StopPointRef>109000009777</StopPointRef>
        </To>
      </RouteLink>
      <RouteLink id="rl_0001_21">
        <From>
          <StopPointRef>109000009777</StopPointRef>
        </From>
        <To>
          <StopPointRef>109000009780</StopPointRef>
        </To>
      </RouteLink>
      <RouteLink id="rl_0001_22">
        <From>
          <StopPointRef>109000009780</StopPointRef>
        </From>
        <To>
          <StopPointRef>109000009782</StopPointRef>
        </To>
      </RouteLink>
      <RouteLink id="rl_0001_23">
        <From>
          <StopPointRef>109000009782</StopPointRef>
        </From>
        <To>
          <StopPointRef>109000009353</StopPointRef>
        </To>
      </RouteLink>
      <RouteLink id="rl_0001_24">
        <From>
          <StopPointRef>109000009353</StopPointRef>
        </From>
        <To>
          <StopPointRef>109000009357</StopPointRef>
        </To>
      </RouteLink>
      <RouteLink id="rl_0001_25">
        <From>
          <StopPointRef>109000009357</StopPointRef>
        </From>
        <To>
          <StopPointRef>109000009359</StopPointRef>
        </To>
      </RouteLink>
      <RouteLink id="rl_0001_26">
        <From>
          <StopPointRef>109000009359</StopPointRef>
        </From>
        <To>
          <StopPointRef>109000009299</StopPointRef>
        </To>
      </RouteLink>
      <RouteLink id="rl_0001_27">
        <From>
          <StopPointRef>109000009299</StopPointRef>
        </From>
        <To>
          <StopPointRef>109000009374</StopPointRef>
        </To>
      </RouteLink>
      <RouteLink id="rl_0001_28">
        <From>
          <StopPointRef>109000009374</StopPointRef>
        </From>
        <To>
          <StopPointRef>109000009300</StopPointRef>
        </To>
      </RouteLink>
      <RouteLink id="rl_0001_29">
        <From>
          <StopPointRef>109000009300</StopPointRef>
        </From>
        <To>
          <StopPointRef>1090DDRS1339</StopPointRef>
        </To>
      </RouteLink>
      <RouteLink id="rl_0001_30">
        <From>
          <StopPointRef>1090DDRS1339</StopPointRef>
        </From>
        <To>
          <StopPointRef>109000009369</StopPointRef>
        </To>
      </RouteLink>
      <RouteLink id="rl_0001_31">
        <From>
          <StopPointRef>109000009369</StopPointRef>
        </From>
        <To>
          <StopPointRef>109052310</StopPointRef>
        </To>
      </RouteLink>
      <RouteLink id="rl_0001_32">
        <From>
          <StopPointRef>109052310</StopPointRef>
        </From>
        <To>
          <StopPointRef>1090BSTN18</StopPointRef>
        </To>
      </RouteLink>
    </RouteSection>
    <RouteSection id="rsf_0002">
      <RouteLink id="rl_0002_1">
        <From>
          <StopPointRef>1000DKNH5051</StopPointRef>
        </From>
        <To>
          <StopPointRef>1000DMPH5047</StopPointRef>
        </To>
      </RouteLink>
      <RouteLink id="rl_0002_2">
        <From>
          <StopPointRef>1000DMPH5047</StopPointRef>
        </From>
        <To>
          <StopPointRef>1000DMPH5045</StopPointRef>
        </To>
      </RouteLink>
      <RouteLink id="rl_0002_3">
        <From>
          <StopPointRef>1000DMPH5045</StopPointRef>
        </From>
        <To>
          <StopPointRef>100000018886</StopPointRef>
        </To>
      </RouteLink>
      <RouteLink id="rl_0002_4">
        <From>
          <StopPointRef>100000018886</StopPointRef>
        </From>
        <To>
          <StopPointRef>1000DMPR5043</StopPointRef>
        </To>
      </RouteLink>
      <RouteLink id="rl_0002_5">
        <From>
          <StopPointRef>1000DMPR5043</StopPointRef>
        </From>
        <To>
          <StopPointRef>1000DMCS5041</StopPointRef>
        </To>
      </RouteLink>
      <RouteLink id="rl_0002_6">
        <From>
          <StopPointRef>1000DMCS5041</StopPointRef>
        </From>
        <To>
          <StopPointRef>1000DMCS5040</StopPointRef>
        </To>
      </RouteLink>
      <RouteLink id="rl_0002_7">
        <From>
          <StopPointRef>1000DMCS5040</StopPointRef>
        </From>
        <To>
          <StopPointRef>1000DMCS5039</StopPointRef>
        </To>
      </RouteLink>
      <RouteLink id="rl_0002_8">
        <From>
          <StopPointRef>1000DMCS5039</StopPointRef>
        </From>
        <To>
          <StopPointRef>1000DMCS3550</StopPointRef>
        </To>
      </RouteLink>
      <RouteLink id="rl_0002_9">
        <From>
          <StopPointRef>1000DMCS3550</StopPointRef>
        </From>
        <To>
          <StopPointRef>1000DMDR5066</StopPointRef>
        </To>
      </RouteLink>
      <RouteLink id="rl_0002_10">
        <From>
          <StopPointRef>1000DMDR5066</StopPointRef>
        </From>
        <To>
          <StopPointRef>1000DMDR5067</StopPointRef>
        </To>
      </RouteLink>
      <RouteLink id="rl_0002_11">
        <From>
          <StopPointRef>1000DMDR5067</StopPointRef>
        </From>
        <To>
          <StopPointRef>1000DMDR5068</StopPointRef>
        </To>
      </RouteLink>
      <RouteLink id="rl_0002_12">
        <From>
          <StopPointRef>1000DMDR5068</StopPointRef>
        </From>
        <To>
          <StopPointRef>100052324</StopPointRef>
        </To>
      </RouteLink>
      <RouteLink id="rl_0002_13">
        <From>
          <StopPointRef>100052324</StopPointRef>
        </From>
        <To>
          <StopPointRef>1000DKNM5050</StopPointRef>
        </To>
      </RouteLink>
      <RouteLink id="rl_0002_14">
        <From>
          <StopPointRef>1000DKNM5050</StopPointRef>
        </From>
        <To>
          <StopPointRef>1000DSBD3636</StopPointRef>
        </To>
      </RouteLink>
      <RouteLink id="rl_0002_15">
        <From>
          <StopPointRef>1000DSBD3636</StopPointRef>
        </From>
        <To>
          <StopPointRef>1000DSAC3634</StopPointRef>
        </To>
      </RouteLink>
      <RouteLink id="rl_0002_16">
        <From>
          <StopPointRef>1000DSAC3634</StopPointRef>
        </From>
        <To>
          <StopPointRef>1000DSSR5055</StopPointRef>
        </To>
      </RouteLink>
      <RouteLink id="rl_0002_17">
        <From>
          <StopPointRef>1000DSSR5055</StopPointRef>
        </From>
        <To>
          <StopPointRef>1000DCBS5064</StopPointRef>
        </To>
      </RouteLink>
      <RouteLink id="rl_0002_18">
        <From>
          <StopPointRef>1000DCBS5064</StopPointRef>
        </From>
        <To>
          <StopPointRef>109000009935</StopPointRef>
        </To>
      </RouteLink>
      <RouteLink id="rl_0002_19">
        <From>
          <StopPointRef>109000009935</StopPointRef>
        </From>
        <To>
          <StopPointRef>109000009799</StopPointRef>
        </To>
      </RouteLink>
      <RouteLink id="rl_0002_20">
        <From>
          <StopPointRef>109000009799</StopPointRef>
        </From>
        <To>
          <StopPointRef>109000009795</StopPointRef>
        </To>
      </RouteLink>
      <RouteLink id="rl_0002_21">
        <From>
          <StopPointRef>109000009795</StopPointRef>
        </From>
        <To>
          <StopPointRef>109000009800</StopPointRef>
        </To>
      </RouteLink>
      <RouteLink id="rl_0002_22">
        <From>
          <StopPointRef>109000009800</StopPointRef>
        </From>
        <To>
          <StopPointRef>109000009872</StopPointRef>
        </To>
      </RouteLink>
      <RouteLink id="rl_0002_23">
        <From>
          <StopPointRef>109000009872</StopPointRef>
        </From>
        <To>
          <StopPointRef>109000009874</StopPointRef>
        </To>
      </RouteLink>
      <RouteLink id="rl_0002_24">
        <From>
          <StopPointRef>109000009874</StopPointRef>
        </From>
        <To>
          <StopPointRef>109000009815</StopPointRef>
        </To>
      </RouteLink>
      <RouteLink id="rl_0002_25">
        <From>
          <StopPointRef>109000009815</StopPointRef>
        </From>
        <To>
          <StopPointRef>109000009817</StopPointRef>
        </To>
      </RouteLink>
      <RouteLink id="rl_0002_26">
        <From>
          <StopPointRef>109000009817</StopPointRef>
        </From>
        <To>
          <StopPointRef>109000009813</StopPointRef>
        </To>
      </RouteLink>
      <RouteLink id="rl_0002_27">
        <From>
          <StopPointRef>109000009813</StopPointRef>
        </From>
        <To>
          <StopPointRef>109000009811</StopPointRef>
        </To>
      </RouteLink>
      <RouteLink id="rl_0002_28">
        <From>
          <StopPointRef>109000009811</StopPointRef>
        </From>
        <To>
          <StopPointRef>109000009808</StopPointRef>
        </To>
      </RouteLink>
      <RouteLink id="rl_0002_29">
        <From>
          <StopPointRef>109000009808</StopPointRef>
        </From>
        <To>
          <StopPointRef>109000009806</StopPointRef>
        </To>
      </RouteLink>
      <RouteLink id="rl_0002_30">
        <From>
          <StopPointRef>109000009806</StopPointRef>
        </From>
        <To>
          <StopPointRef>109000009804</StopPointRef>
        </To>
      </RouteLink>
      <RouteLink id="rl_0002_31">
        <From>
          <StopPointRef>109000009804</StopPointRef>
        </From>
        <To>
          <StopPointRef>109000009855</StopPointRef>
        </To>
      </RouteLink>
      <RouteLink id="rl_0002_32">
        <From>
          <StopPointRef>109000009855</StopPointRef>
        </From>
        <To>
          <StopPointRef>109000009853</StopPointRef>
        </To>
      </RouteLink>
      <RouteLink id="rl_0002_33">
        <From>
          <StopPointRef>109000009853</StopPointRef>
        </From>
        <To>
          <StopPointRef>109000009852</StopPointRef>
        </To>
      </RouteLink>
      <RouteLink id="rl_0002_34">
        <From>
          <StopPointRef>109000009852</StopPointRef>
        </From>
        <To>
          <StopPointRef>109000009767</StopPointRef>
        </To>
      </RouteLink>
      <RouteLink id="rl_0002_35">
        <From>
          <StopPointRef>109000009767</StopPointRef>
        </From>
        <To>
          <StopPointRef>109000009760</StopPointRef>
        </To>
      </RouteLink>
      <RouteLink id="rl_0002_36">
        <From>
          <StopPointRef>109000009760</StopPointRef>
        </From>
        <To>
          <StopPointRef>109000009777</StopPointRef>
        </To>
      </RouteLink>
      <RouteLink id="rl_0002_37">
        <From>
          <StopPointRef>109000009777</StopPointRef>
        </From>
        <To>
          <StopPointRef>109000009780</StopPointRef>
        </To>
      </RouteLink>
      <RouteLink id="rl_0002_38">
        <From>
          <StopPointRef>109000009780</StopPointRef>
        </From>
        <To>
          <StopPointRef>109000009782</StopPointRef>
        </To>
      </RouteLink>
      <RouteLink id="rl_0002_39">
        <From>
          <StopPointRef>109000009782</StopPointRef>
        </From>
        <To>
          <StopPointRef>109000009353</StopPointRef>
        </To>
      </RouteLink>
      <RouteLink id="rl_0002_40">
        <From>
          <StopPointRef>109000009353</StopPointRef>
        </From>
        <To>
          <StopPointRef>109000009357</StopPointRef>
        </To>
      </RouteLink>
      <RouteLink id="rl_0002_41">
        <From>
          <StopPointRef>109000009357</StopPointRef>
        </From>
        <To>
          <StopPointRef>109000009359</StopPointRef>
        </To>
      </RouteLink>
      <RouteLink id="rl_0002_42">
        <From>
          <StopPointRef>109000009359</StopPointRef>
        </From>
        <To>
          <StopPointRef>109000009299</StopPointRef>
        </To>
      </RouteLink>
      <RouteLink id="rl_0002_43">
        <From>
          <StopPointRef>109000009299</StopPointRef>
        </From>
        <To>
          <StopPointRef>109000009374</StopPointRef>
        </To>
      </RouteLink>
      <RouteLink id="rl_0002_44">
        <From>
          <StopPointRef>109000009374</StopPointRef>
        </From>
        <To>
          <StopPointRef>109000009300</StopPointRef>
        </To>
      </RouteLink>
      <RouteLink id="rl_0002_45">
        <From>
          <StopPointRef>109000009300</StopPointRef>
        </From>
        <To>
          <StopPointRef>1090DDRS1339</StopPointRef>
        </To>
      </RouteLink>
      <RouteLink id="rl_0002_46">
        <From>
          <StopPointRef>1090DDRS1339</StopPointRef>
        </From>
        <To>
          <StopPointRef>109000009369</StopPointRef>
        </To>
      </RouteLink>
      <RouteLink id="rl_0002_47">
        <From>
          <StopPointRef>109000009369</StopPointRef>
        </From>
        <To>
          <StopPointRef>109052310</StopPointRef>
        </To>
      </RouteLink>
      <RouteLink id="rl_0002_48">
        <From>
          <StopPointRef>109052310</StopPointRef>
        </From>
        <To>
          <StopPointRef>1090BSTN18</StopPointRef>
        </To>
      </RouteLink>
    </RouteSection>
    <RouteSection id="rsf_0003">
      <RouteLink id="rl_0003_1">
        <From>
          <StopPointRef>109000022193</StopPointRef>
        </From>
        <To>
          <StopPointRef>109000022386</StopPointRef>
        </To>
      </RouteLink>
      <RouteLink id="rl_0003_2">
        <From>
          <StopPointRef>109000022386</StopPointRef>
        </From>
        <To>
          <StopPointRef>109000022384</StopPointRef>
        </To>
      </RouteLink>
      <RouteLink id="rl_0003_3">
        <From>
          <StopPointRef>109000022384</StopPointRef>
        </From>
        <To>
          <StopPointRef>109000022383</StopPointRef>
        </To>
      </RouteLink>
      <RouteLink id="rl_0003_4">
        <From>
          <StopPointRef>109000022383</StopPointRef>
        </From>
        <To>
          <StopPointRef>109000022385</StopPointRef>
        </To>
      </RouteLink>
      <RouteLink id="rl_0003_5">
        <From>
          <StopPointRef>109000022385</StopPointRef>
        </From>
        <To>
          <StopPointRef>109000022194</StopPointRef>
        </To>
      </RouteLink>
      <RouteLink id="rl_0003_6">
        <From>
          <StopPointRef>109000022194</StopPointRef>
        </From>
        <To>
          <StopPointRef>109000022387</StopPointRef>
        </To>
      </RouteLink>
      <RouteLink id="rl_0003_7">
        <From>
          <StopPointRef>109000022387</StopPointRef>
        </From>
        <To>
          <StopPointRef>109000022390</StopPointRef>
        </To>
      </RouteLink>
      <RouteLink id="rl_0003_8">
        <From>
          <StopPointRef>109000022390</StopPointRef>
        </From>
        <To>
          <StopPointRef>109000022392</StopPointRef>
        </To>
      </RouteLink>
      <RouteLink id="rl_0003_9">
        <From>
          <StopPointRef>109000022392</StopPointRef>
        </From>
        <To>
          <StopPointRef>109000022245</StopPointRef>
        </To>
      </RouteLink>
      <RouteLink id="rl_0003_10">
        <From>
          <StopPointRef>109000022245</StopPointRef>
        </From>
        <To>
          <StopPointRef>109000009935</StopPointRef>
        </To>
      </RouteLink>
      <RouteLink id="rl_0003_11">
        <From>
          <StopPointRef>109000009935</StopPointRef>
        </From>
        <To>
          <StopPointRef>109000009799</StopPointRef>
        </To>
      </RouteLink>
      <RouteLink id="rl_0003_12">
        <From>
          <StopPointRef>109000009799</StopPointRef>
        </From>
        <To>
          <StopPointRef>109000009795</StopPointRef>
        </To>
      </RouteLink>
      <RouteLink id="rl_0003_13">
        <From>
          <StopPointRef>109000009795</StopPointRef>
        </From>
        <To>
          <StopPointRef>109000009800</StopPointRef>
        </To>
      </RouteLink>
      <RouteLink id="rl_0003_14">
        <From>
          <StopPointRef>109000009800</StopPointRef>
        </From>
        <To>
          <StopPointRef>109000009872</StopPointRef>
        </To>
      </RouteLink>
      <RouteLink id="rl_0003_15">
        <From>
          <StopPointRef>109000009872</StopPointRef>
        </From>
        <To>
          <StopPointRef>109000009874</StopPointRef>
        </To>
      </RouteLink>
      <RouteLink id="rl_0003_16">
        <From>
          <StopPointRef>109000009874</StopPointRef>
        </From>
        <To>
          <StopPointRef>109000009815</StopPointRef>
        </To>
      </RouteLink>
      <RouteLink id="rl_0003_17">
        <From>
          <StopPointRef>109000009815</StopPointRef>
        </From>
        <To>
          <StopPointRef>109000009817</StopPointRef>
        </To>
      </RouteLink>
      <RouteLink id="rl_0003_18">
        <From>
          <StopPointRef>109000009817</StopPointRef>
        </From>
        <To>
          <StopPointRef>109000009813</StopPointRef>
        </To>
      </RouteLink>
      <RouteLink id="rl_0003_19">
        <From>
          <StopPointRef>109000009813</StopPointRef>
        </From>
        <To>
          <StopPointRef>109000009811</StopPointRef>
        </To>
      </RouteLink>
      <RouteLink id="rl_0003_20">
        <From>
          <StopPointRef>109000009811</StopPointRef>
        </From>
        <To>
          <StopPointRef>109000009808</StopPointRef>
        </To>
      </RouteLink>
      <RouteLink id="rl_0003_21">
        <From>
          <StopPointRef>109000009808</StopPointRef>
        </From>
        <To>
          <StopPointRef>109000009806</StopPointRef>
        </To>
      </RouteLink>
      <RouteLink id="rl_0003_22">
        <From>
          <StopPointRef>109000009806</StopPointRef>
        </From>
        <To>
          <StopPointRef>109000009804</StopPointRef>
        </To>
      </RouteLink>
      <RouteLink id="rl_0003_23">
        <From>
          <StopPointRef>109000009804</StopPointRef>
        </From>
        <To>
          <StopPointRef>109000009855</StopPointRef>
        </To>
      </RouteLink>
      <RouteLink id="rl_0003_24">
        <From>
          <StopPointRef>109000009855</StopPointRef>
        </From>
        <To>
          <StopPointRef>109000009853</StopPointRef>
        </To>
      </RouteLink>
      <RouteLink id="rl_0003_25">
        <From>
          <StopPointRef>109000009853</StopPointRef>
        </From>
        <To>
          <StopPointRef>109000009852</StopPointRef>
        </To>
      </RouteLink>
      <RouteLink id="rl_0003_26">
        <From>
          <StopPointRef>109000009852</StopPointRef>
        </From>
        <To>
          <StopPointRef>109000009767</StopPointRef>
        </To>
      </RouteLink>
      <RouteLink id="rl_0003_27">
        <From>
          <StopPointRef>109000009767</StopPointRef>
        </From>
        <To>
          <StopPointRef>109000009760</StopPointRef>
        </To>
      </RouteLink>
      <RouteLink id="rl_0003_28">
        <From>
          <StopPointRef>109000009760</StopPointRef>
        </From>
        <To>
          <StopPointRef>109000009777</StopPointRef>
        </To>
      </RouteLink>
      <RouteLink id="rl_0003_29">
        <From>
          <StopPointRef>109000009777</StopPointRef>
        </From>
        <To>
          <StopPointRef>109000009780</StopPointRef>
        </To>
      </RouteLink>
      <RouteLink id="rl_0003_30">
        <From>
          <StopPointRef>109000009780</StopPointRef>
        </From>
        <To>
          <StopPointRef>109000009782</StopPointRef>
        </To>
      </RouteLink>
      <RouteLink id="rl_0003_31">
        <From>
          <StopPointRef>109000009782</StopPointRef>
        </From>
        <To>
          <StopPointRef>109000009353</StopPointRef>
        </To>
      </RouteLink>
      <RouteLink id="rl_0003_32">
        <From>
          <StopPointRef>109000009353</StopPointRef>
        </From>
        <To>
          <StopPointRef>109000009357</StopPointRef>
        </To>
      </RouteLink>
      <RouteLink id="rl_0003_33">
        <From>
          <StopPointRef>109000009357</StopPointRef>
        </From>
        <To>
          <StopPointRef>109000009359</StopPointRef>
        </To>
      </RouteLink>
      <RouteLink id="rl_0003_34">
        <From>
          <StopPointRef>109000009359</StopPointRef>
        </From>
        <To>
          <StopPointRef>109000009299</StopPointRef>
        </To>
      </RouteLink>
      <RouteLink id="rl_0003_35">
        <From>
          <StopPointRef>109000009299</StopPointRef>
        </From>
        <To>
          <StopPointRef>109000009374</StopPointRef>
        </To>
      </RouteLink>
      <RouteLink id="rl_0003_36">
        <From>
          <StopPointRef>109000009374</StopPointRef>
        </From>
        <To>
          <StopPointRef>109000009300</StopPointRef>
        </To>
      </RouteLink>
      <RouteLink id="rl_0003_37">
        <From>
          <StopPointRef>109000009300</StopPointRef>
        </From>
        <To>
          <StopPointRef>1090DDRS1339</StopPointRef>
        </To>
      </RouteLink>
      <RouteLink id="rl_0003_38">
        <From>
          <StopPointRef>1090DDRS1339</StopPointRef>
        </From>
        <To>
          <StopPointRef>109000009369</StopPointRef>
        </To>
      </RouteLink>
      <RouteLink id="rl_0003_39">
        <From>
          <StopPointRef>109000009369</StopPointRef>
        </From>
        <To>
          <StopPointRef>109052310</StopPointRef>
        </To>
      </RouteLink>
      <RouteLink id="rl_0003_40">
        <From>
          <StopPointRef>109052310</StopPointRef>
        </From>
        <To>
          <StopPointRef>1090BSTN18</StopPointRef>
        </To>
      </RouteLink>
    </RouteSection>
    <RouteSection id="rsf_0004">
      <RouteLink id="rl_0004_1">
        <From>
          <StopPointRef>1000DSBS1931</StopPointRef>
        </From>
        <To>
          <StopPointRef>1000DSCW4807</StopPointRef>
        </To>
      </RouteLink>
      <RouteLink id="rl_0004_2">
        <From>
          <StopPointRef>1000DSCW4807</StopPointRef>
        </From>
        <To>
          <StopPointRef>1000DSDF4810</StopPointRef>
        </To>
      </RouteLink>
      <RouteLink id="rl_0004_3">
        <From>
          <StopPointRef>1000DSDF4810</StopPointRef>
        </From>
        <To>
          <StopPointRef>1000DSDR4808</StopPointRef>
        </To>
      </RouteLink>
      <RouteLink id="rl_0004_4">
        <From>
          <StopPointRef>1000DSDR4808</StopPointRef>
        </From>
        <To>
          <StopPointRef>1000DWSF4812</StopPointRef>
        </To>
      </RouteLink>
      <RouteLink id="rl_0004_5">
        <From>
          <StopPointRef>1000DWSF4812</StopPointRef>
        </From>
        <To>
          <StopPointRef>1000DWTG3625</StopPointRef>
        </To>
      </RouteLink>
      <RouteLink id="rl_0004_6">
        <From>
          <StopPointRef>1000DWTG3625</StopPointRef>
        </From>
        <To>
          <StopPointRef>1000DWHR4819</StopPointRef>
        </To>
      </RouteLink>
      <RouteLink id="rl_0004_7">
        <From>
          <StopPointRef>1000DWHR4819</StopPointRef>
        </From>
        <To>
          <StopPointRef>1000DWWR4821</StopPointRef>
        </To>
      </RouteLink>
      <RouteLink id="rl_0004_8">
        <From>
          <StopPointRef>1000DWWR4821</StopPointRef>
        </From>
        <To>
          <StopPointRef>1000DWWR4868</StopPointRef>
        </To>
      </RouteLink>
      <RouteLink id="rl_0004_9">
        <From>
          <StopPointRef>1000DWWR4868</StopPointRef>
        </From>
        <To>
          <StopPointRef>1000DWWR4866</StopPointRef>
        </To>
      </RouteLink>
      <RouteLink id="rl_0004_10">
        <From>
          <StopPointRef>1000DWWR4866</StopPointRef>
        </From>
        <To>
          <StopPointRef>1000DHWR4864</StopPointRef>
        </To>
      </RouteLink>
      <RouteLink id="rl_0004_11">
        <From>
          <StopPointRef>1000DHWR4864</StopPointRef>
        </From>
        <To>
          <StopPointRef>1000DHMS4817</StopPointRef>
        </To>
      </RouteLink>
      <RouteLink id="rl_0004_12">
        <From>
          <StopPointRef>1000DHMS4817</StopPointRef>
        </From>
        <To>
          <StopPointRef>100000008717</StopPointRef>
        </To>
      </RouteLink>
      <RouteLink id="rl_0004_13">
        <From>
          <StopPointRef>100000008717</StopPointRef>
        </From>
        <To>
          <StopPointRef>100000008715</StopPointRef>
        </To>
      </RouteLink>
      <RouteLink id="rl_0004_14">
        <From>
          <StopPointRef>100000008715</StopPointRef>
        </From>
        <To>
          <StopPointRef>100000008713</StopPointRef>
        </To>
      </RouteLink>
      <RouteLink id="rl_0004_15">
        <From>
          <StopPointRef>100000008713</StopPointRef>
        </From>
        <To>
          <StopPointRef>100000008686</StopPointRef>
        </To>
      </RouteLink>
      <RouteLink id="rl_0004_16">
        <From>
          <StopPointRef>100000008686</StopPointRef>
        </From>
        <To>
          <StopPointRef>100000008718</StopPointRef>
        </To>
      </RouteLink>
      <RouteLink id="rl_0004_17">
        <From>
          <StopPointRef>100000008718</StopPointRef>
        </From>
        <To>
          <StopPointRef>1000DTDR5010</StopPointRef>
        </To>
      </RouteLink>
      <RouteLink id="rl_0004_18">
        <From>
          <StopPointRef>1000DTDR5010</StopPointRef>
        </From>
        <To>
          <StopPointRef>1000DTAR5012</StopPointRef>
        </To>
      </RouteLink>
      <RouteLink id="rl_0004_19">
        <From>
          <StopPointRef>1000DTAR5012</StopPointRef>
        </From>
        <To>
          <StopPointRef>1000DTHS5014</StopPointRef>
        </To>
      </RouteLink>
      <RouteLink id="rl_0004_20">
        <From>
          <StopPointRef>1000DTHS5014</StopPointRef>
        </From>
        <To>
          <StopPointRef>1000DTMS1594</StopPointRef>
        </To>
      </RouteLink>
      <RouteLink id="rl_0004_21">
        <From>
          <StopPointRef>1000DTMS1594</StopPointRef>
        </From>
        <To>
          <StopPointRef>1000DTMS5018</StopPointRef>
        </To>
      </RouteLink>
      <RouteLink id="rl_0004_22">
        <From>
          <StopPointRef>1000DTMS5018</StopPointRef>
        </From>
        <To>
          <StopPointRef>1000DTMS5021</StopPointRef>
        </To>
      </RouteLink>
      <RouteLink id="rl_0004_23">
        <From>
          <StopPointRef>1000DTMS5021</StopPointRef>
        </From>
        <To>
          <StopPointRef>1000DTMS5023</StopPointRef>
        </To>
      </RouteLink>
      <RouteLink id="rl_0004_24">
        <From>
          <StopPointRef>1000DTMS5023</StopPointRef>
        </From>
        <To>
          <StopPointRef>100000008689</StopPointRef>
        </To>
      </RouteLink>
      <RouteLink id="rl_0004_25">
        <From>
          <StopPointRef>100000008689</StopPointRef>
        </From>
        <To>
          <StopPointRef>1000DMCM5026</StopPointRef>
