<?xml version="1.0" encoding="utf-8"?>
<TransXChange xmlns:xsi="http://www.w3.org/2001/XMLSchema-instance" SchemaVersion="2.4" CreationDateTime="2024-09-19T08:38:17" ModificationDateTime="2025-05-02T10:08:40" Modification="revise" RevisionNumber="30" FileName="AMID_229B_AMIDPF000708517329B_20250222_-_2045887.xml" xmlns="http://www.transxchange.org.uk/">
  <StopPoints>
    <AnnotatedStopPointRef>
      <StopPointRef>269030079</StopPointRef>
      <CommonName>St Margaret's Bus Station</CommonName>
      <Location>
        <Longitude>-1.133746</Longitude>
        <Latitude>52.639757</Latitude>
      </Location>
    </AnnotatedStopPointRef>
    <AnnotatedStopPointRef>
      <StopPointRef>269030023</StopPointRef>
      <CommonName>Pasture Lane</CommonName>
      <Location>
        <Longitude>-1.137842</Longitude>
        <Latitude>52.640021</Latitude>
      </Location>
    </AnnotatedStopPointRef>
    <AnnotatedStopPointRef>
      <StopPointRef>269030024</StopPointRef>
      <CommonName>The New Joiners</CommonName>
      <Location>
        <Longitude>-1.139772</Longitude>
        <Latitude>52.639613</Latitude>
      </Location>
    </AnnotatedStopPointRef>
    <AnnotatedStopPointRef>
      <StopPointRef>269030062</StopPointRef>
      <CommonName>Soar Lane</CommonName>
      <Location>
        <Longitude>-1.141966</Longitude>
        <Latitude>52.639942</Latitude>
      </Location>
    </AnnotatedStopPointRef>
    <AnnotatedStopPointRef>
      <StopPointRef>269030018</StopPointRef>
      <CommonName>Slater Street</CommonName>
      <Location>
        <Longitude>-1.143135</Longitude>
        <Latitude>52.641408</Latitude>
      </Location>
    </AnnotatedStopPointRef>
    <AnnotatedStopPointRef>
      <StopPointRef>269030022</StopPointRef>
      <CommonName>Pasture Lane</CommonName>
      <Location>
        <Longitude>-1.138181</Longitude>
        <Latitude>52.640087</Latitude>
      </Location>
    </AnnotatedStopPointRef>
    <AnnotatedStopPointRef>
      <StopPointRef>269050014</StopPointRef>
      <CommonName>Dunton Street</CommonName>
      <Location>
        <Longitude>-1.146239</Longitude>
        <Latitude>52.643696</Latitude>
      </Location>
    </AnnotatedStopPointRef>
    <AnnotatedStopPointRef>
      <StopPointRef>269030063</StopPointRef>
      <CommonName>Soar Lane</CommonName>
      <Location>
        <Longitude>-1.141501</Longitude>
        <Latitude>52.639561</Latitude>
      </Location>
    </AnnotatedStopPointRef>
    <AnnotatedStopPointRef>
      <StopPointRef>269030019</StopPointRef>
      <CommonName>Slater Street</CommonName>
      <Location>
        <Longitude>-1.143088</Longitude>
        <Latitude>52.641588</Latitude>
      </Location>
    </AnnotatedStopPointRef>
    <AnnotatedStopPointRef>
      <StopPointRef>269050019</StopPointRef>
      <CommonName>Abbey Gate</CommonName>
      <Location>
        <Longitude>-1.144544</Longitude>
        <Latitude>52.643459</Latitude>
      </Location>
    </AnnotatedStopPointRef>
    <AnnotatedStopPointRef>
      <StopPointRef>269050015</StopPointRef>
      <CommonName>Fosse Road Corner</CommonName>
      <Location>
        <Longitude>-1.150489</Longitude>
        <Latitude>52.643996</Latitude>
      </Location>
    </AnnotatedStopPointRef>
    <AnnotatedStopPointRef>
      <StopPointRef>269056032</StopPointRef>
      <CommonName>Garland Crescent</CommonName>
      <Location>
        <Longitude>-1.158341</Longitude>
        <Latitude>52.646093</Latitude>
      </Location>
    </AnnotatedStopPointRef>
    <AnnotatedStopPointRef>
      <StopPointRef>269050018</StopPointRef>
      <CommonName>Dunton Street</CommonName>
      <Location>
        <Longitude>-1.147534</Longitude>
        <Latitude>52.643957</Latitude>
      </Location>
    </AnnotatedStopPointRef>
    <AnnotatedStopPointRef>
      <StopPointRef>269050017</StopPointRef>
      <CommonName>Co-op</CommonName>
      <Location>
        <Longitude>-1.150442</Longitude>
        <Latitude>52.644167</Latitude>
      </Location>
    </AnnotatedStopPointRef>
    <AnnotatedStopPointRef>
      <StopPointRef>269056033</StopPointRef>
      <CommonName>Mary Road</CommonName>
      <Location>
        <Longitude>-1.160468</Longitude>
        <Latitude>52.647726</Latitude>
      </Location>
    </AnnotatedStopPointRef>
    <AnnotatedStopPointRef>
      <StopPointRef>269056034</StopPointRef>
      <CommonName>Darlington Road</CommonName>
      <Location>
        <Longitude>-1.165553</Longitude>
        <Latitude>52.649255</Latitude>
      </Location>
    </AnnotatedStopPointRef>
    <AnnotatedStopPointRef>
      <StopPointRef>269056035</StopPointRef>
      <CommonName>Heathley Park Drive</CommonName>
      <Location>
        <Longitude>-1.168612</Longitude>
        <Latitude>52.650085</Latitude>
      </Location>
    </AnnotatedStopPointRef>
    <AnnotatedStopPointRef>
      <StopPointRef>269051006</StopPointRef>
      <CommonName>Medina Road</CommonName>
      <Location>
        <Longitude>-1.152054</Longitude>
        <Latitude>52.644334</Latitude>
      </Location>
    </AnnotatedStopPointRef>
    <AnnotatedStopPointRef>
      <StopPointRef>269044000</StopPointRef>
      <CommonName>Gilroes Cemetery</CommonName>
      <Location>
        <Longitude>-1.172626</Longitude>
        <Latitude>52.651192</Latitude>
      </Location>
    </AnnotatedStopPointRef>
    <AnnotatedStopPointRef>
      <StopPointRef>269050016</StopPointRef>
      <CommonName>Garland Crescent</CommonName>
      <Location>
        <Longitude>-1.156468</Longitude>
        <Latitude>52.645145</Latitude>
      </Location>
    </AnnotatedStopPointRef>
    <AnnotatedStopPointRef>
      <StopPointRef>269032100</StopPointRef>
      <CommonName>Mary Road</CommonName>
      <Location>
        <Longitude>-1.159261</Longitude>
        <Latitude>52.647475</Latitude>
      </Location>
    </AnnotatedStopPointRef>
    <AnnotatedStopPointRef>
      <StopPointRef>269032099</StopPointRef>
      <CommonName>Darlington Road</CommonName>
      <Location>
        <Longitude>-1.163593</Longitude>
        <Latitude>52.648971</Latitude>
      </Location>
    </AnnotatedStopPointRef>
    <AnnotatedStopPointRef>
      <StopPointRef>269032098</StopPointRef>
      <CommonName>Heathley Park Drive</CommonName>
      <Location>
        <Longitude>-1.166814</Longitude>
        <Latitude>52.649803</Latitude>
      </Location>
    </AnnotatedStopPointRef>
    <AnnotatedStopPointRef>
      <StopPointRef>269032097</StopPointRef>
      <CommonName>Gilroes Cemetery</CommonName>
      <Location>
        <Longitude>-1.171431</Longitude>
        <Latitude>52.651085</Latitude>
      </Location>
    </AnnotatedStopPointRef>
    <AnnotatedStopPointRef>
      <StopPointRef>269044001</StopPointRef>
      <CommonName>Glenfield Hospital</CommonName>
      <Location>
        <Longitude>-1.178814</Longitude>
        <Latitude>52.652305</Latitude>
      </Location>
    </AnnotatedStopPointRef>
    <AnnotatedStopPointRef>
      <StopPointRef>269032096</StopPointRef>
      <CommonName>Glenfield Hospital</CommonName>
      <Location>
        <Longitude>-1.180934</Longitude>
        <Latitude>52.652751</Latitude>
      </Location>
    </AnnotatedStopPointRef>
    <AnnotatedStopPointRef>
      <StopPointRef>260003906</StopPointRef>
      <CommonName>Glenfield Frith Drive</CommonName>
      <Location>
        <Longitude>-1.184122</Longitude>
        <Latitude>52.653061</Latitude>
      </Location>
    </AnnotatedStopPointRef>
    <AnnotatedStopPointRef>
      <StopPointRef>260003907</StopPointRef>
      <CommonName>County Hall</CommonName>
      <Location>
        <Longitude>-1.191010</Longitude>
        <Latitude>52.655472</Latitude>
      </Location>
    </AnnotatedStopPointRef>
    <AnnotatedStopPointRef>
      <StopPointRef>260003905</StopPointRef>
      <CommonName>County Hall</CommonName>
      <Location>
        <Longitude>-1.189257</Longitude>
        <Latitude>52.655155</Latitude>
      </Location>
    </AnnotatedStopPointRef>
    <AnnotatedStopPointRef>
      <StopPointRef>260003904</StopPointRef>
      <CommonName>Gynsill Lane</CommonName>
      <Location>
        <Longitude>-1.193276</Longitude>
        <Latitude>52.656863</Latitude>
      </Location>
    </AnnotatedStopPointRef>
    <AnnotatedStopPointRef>
      <StopPointRef>260003908</StopPointRef>
      <CommonName>Gynsill Lane</CommonName>
      <Location>
        <Longitude>-1.193915</Longitude>
        <Latitude>52.656688</Latitude>
      </Location>
    </AnnotatedStopPointRef>
    <AnnotatedStopPointRef>
      <StopPointRef>260003901</StopPointRef>
      <CommonName>Overdale Avenue</CommonName>
      <Location>
        <Longitude>-1.204182</Longitude>
        <Latitude>52.659526</Latitude>
      </Location>
    </AnnotatedStopPointRef>
    <AnnotatedStopPointRef>
      <StopPointRef>260003900</StopPointRef>
      <CommonName>Overdale Avenue</CommonName>
      <Location>
        <Longitude>-1.205020</Longitude>
        <Latitude>52.659801</Latitude>
      </Location>
    </AnnotatedStopPointRef>
    <AnnotatedStopPointRef>
      <StopPointRef>260010700</StopPointRef>
      <CommonName>Marina Drive</CommonName>
      <Location>
        <Longitude>-1.214388</Longitude>
        <Latitude>52.660942</Latitude>
      </Location>
    </AnnotatedStopPointRef>
    <AnnotatedStopPointRef>
      <StopPointRef>260010708</StopPointRef>
      <CommonName>Anstey Lane Roundabout</CommonName>
      <Location>
        <Longitude>-1.210874</Longitude>
        <Latitude>52.660676</Latitude>
      </Location>
    </AnnotatedStopPointRef>
    <AnnotatedStopPointRef>
      <StopPointRef>260010707</StopPointRef>
      <CommonName>Marina Drive</CommonName>
      <Location>
        <Longitude>-1.213395</Longitude>
        <Latitude>52.661053</Latitude>
      </Location>
    </AnnotatedStopPointRef>
    <AnnotatedStopPointRef>
      <StopPointRef>260010706</StopPointRef>
      <CommonName>Marston Drive</CommonName>
      <Location>
        <Longitude>-1.215753</Longitude>
        <Latitude>52.661482</Latitude>
      </Location>
    </AnnotatedStopPointRef>
    <AnnotatedStopPointRef>
      <StopPointRef>260010701</StopPointRef>
      <CommonName>Marston Drive</CommonName>
      <Location>
        <Longitude>-1.218724</Longitude>
        <Latitude>52.661537</Latitude>
      </Location>
    </AnnotatedStopPointRef>
    <AnnotatedStopPointRef>
      <StopPointRef>260010702</StopPointRef>
      <CommonName>Pymm Ley Lane</CommonName>
      <Location>
        <Longitude>-1.223061</Longitude>
        <Latitude>52.662123</Latitude>
      </Location>
    </AnnotatedStopPointRef>
    <AnnotatedStopPointRef>
      <StopPointRef>260010705</StopPointRef>
      <CommonName>Pymm Ley Lane</CommonName>
      <Location>
        <Longitude>-1.223853</Longitude>
        <Latitude>52.662461</Latitude>
      </Location>
    </AnnotatedStopPointRef>
    <AnnotatedStopPointRef>
      <StopPointRef>260007610</StopPointRef>
      <CommonName>The Bradgate</CommonName>
      <Location>
        <Longitude>-1.234738</Longitude>
        <Latitude>52.685131</Latitude>
      </Location>
    </AnnotatedStopPointRef>
    <AnnotatedStopPointRef>
      <StopPointRef>260007602</StopPointRef>
      <CommonName>Bradgate Park</CommonName>
      <Location>
        <Longitude>-1.230540</Longitude>
        <Latitude>52.683288</Latitude>
      </Location>
    </AnnotatedStopPointRef>
    <AnnotatedStopPointRef>
      <StopPointRef>260007601</StopPointRef>
      <CommonName>The Bradgate</CommonName>
      <Location>
        <Longitude>-1.234854</Longitude>
        <Latitude>52.685303</Latitude>
      </Location>
    </AnnotatedStopPointRef>
    <AnnotatedStopPointRef>
      <StopPointRef>260007611</StopPointRef>
      <CommonName>Markfield Lane</CommonName>
      <Location>
        <Longitude>-1.236936</Longitude>
        <Latitude>52.686368</Latitude>
      </Location>
    </AnnotatedStopPointRef>
    <AnnotatedStopPointRef>
      <StopPointRef>260007527</StopPointRef>
      <CommonName>Linford House</CommonName>
      <Location>
        <Longitude>-1.258554</Longitude>
        <Latitude>52.685249</Latitude>
      </Location>
    </AnnotatedStopPointRef>
    <AnnotatedStopPointRef>
      <StopPointRef>260007600</StopPointRef>
      <CommonName>Markfield Lane</CommonName>
      <Location>
        <Longitude>-1.237123</Longitude>
        <Latitude>52.686666</Latitude>
      </Location>
    </AnnotatedStopPointRef>
    <AnnotatedStopPointRef>
      <StopPointRef>260007526</StopPointRef>
      <CommonName>Linford House</CommonName>
      <Location>
        <Longitude>-1.259512</Longitude>
        <Latitude>52.685376</Latitude>
      </Location>
    </AnnotatedStopPointRef>
    <AnnotatedStopPointRef>
      <StopPointRef>260011100</StopPointRef>
      <CommonName>Cemetery</CommonName>
      <Location>
        <Longitude>-1.270700</Longitude>
        <Latitude>52.687867</Latitude>
      </Location>
    </AnnotatedStopPointRef>
    <AnnotatedStopPointRef>
      <StopPointRef>260011102</StopPointRef>
      <CommonName>Cemetery</CommonName>
      <Location>
        <Longitude>-1.270272</Longitude>
        <Latitude>52.687820</Latitude>
      </Location>
    </AnnotatedStopPointRef>
    <AnnotatedStopPointRef>
      <StopPointRef>260011121</StopPointRef>
      <CommonName>Meadow Lane</CommonName>
      <Location>
        <Longitude>-1.272901</Longitude>
        <Latitude>52.687171</Latitude>
      </Location>
    </AnnotatedStopPointRef>
    <AnnotatedStopPointRef>
      <StopPointRef>260011122</StopPointRef>
      <CommonName>Meadow Lane</CommonName>
      <Location>
        <Longitude>-1.272250</Longitude>
        <Latitude>52.688057</Latitude>
      </Location>
    </AnnotatedStopPointRef>
    <AnnotatedStopPointRef>
      <StopPointRef>260011123</StopPointRef>
      <CommonName>Bradgate Road</CommonName>
      <Location>
        <Longitude>-1.273041</Longitude>
        <Latitude>52.685886</Latitude>
      </Location>
    </AnnotatedStopPointRef>
    <AnnotatedStopPointRef>
      <StopPointRef>260011120</StopPointRef>
      <CommonName>Linford Crescent</CommonName>
      <Location>
        <Longitude>-1.273055</Longitude>
        <Latitude>52.684133</Latitude>
      </Location>
    </AnnotatedStopPointRef>
    <AnnotatedStopPointRef>
      <StopPointRef>260011116</StopPointRef>
      <CommonName>Chitterman Way</CommonName>
      <Location>
        <Longitude>-1.275090</Longitude>
        <Latitude>52.681862</Latitude>
      </Location>
    </AnnotatedStopPointRef>
    <AnnotatedStopPointRef>
      <StopPointRef>260011124</StopPointRef>
      <CommonName>Linford Crescent</CommonName>
      <Location>
        <Longitude>-1.273092</Longitude>
        <Latitude>52.684592</Latitude>
      </Location>
    </AnnotatedStopPointRef>
    <AnnotatedStopPointRef>
      <StopPointRef>260011125</StopPointRef>
      <CommonName>The Chase</CommonName>
      <Location>
        <Longitude>-1.272927</Longitude>
        <Latitude>52.682963</Latitude>
      </Location>
    </AnnotatedStopPointRef>
    <AnnotatedStopPointRef>
      <StopPointRef>260011109</StopPointRef>
      <CommonName>The Green</CommonName>
      <Location>
        <Longitude>-1.280326</Longitude>
        <Latitude>52.683674</Latitude>
      </Location>
    </AnnotatedStopPointRef>
    <AnnotatedStopPointRef>
      <StopPointRef>260011142</StopPointRef>
      <CommonName>Co-op</CommonName>
      <Location>
        <Longitude>-1.278518</Longitude>
        <Latitude>52.685659</Latitude>
      </Location>
    </AnnotatedStopPointRef>
    <AnnotatedStopPointRef>
      <StopPointRef>260011118</StopPointRef>
      <CommonName>Chitterman Way</CommonName>
      <Location>
        <Longitude>-1.275190</Longitude>
        <Latitude>52.681768</Latitude>
      </Location>
    </AnnotatedStopPointRef>
    <AnnotatedStopPointRef>
      <StopPointRef>260011108</StopPointRef>
      <CommonName>The Nook</CommonName>
      <Location>
        <Longitude>-1.277759</Longitude>
        <Latitude>52.686823</Latitude>
      </Location>
    </AnnotatedStopPointRef>
    <AnnotatedStopPointRef>
      <StopPointRef>260011119</StopPointRef>
      <CommonName>Croftway</CommonName>
      <Location>
        <Longitude>-1.279703</Longitude>
        <Latitude>52.682915</Latitude>
      </Location>
    </AnnotatedStopPointRef>
    <AnnotatedStopPointRef>
      <StopPointRef>260011110</StopPointRef>
      <CommonName>The Green</CommonName>
      <Location>
        <Longitude>-1.279526</Longitude>
        <Latitude>52.684667</Latitude>
      </Location>
    </AnnotatedStopPointRef>
    <AnnotatedStopPointRef>
      <StopPointRef>260011107</StopPointRef>
      <CommonName>Park Avenue</CommonName>
      <Location>
        <Longitude>-1.277442</Longitude>
        <Latitude>52.688133</Latitude>
      </Location>
    </AnnotatedStopPointRef>
    <AnnotatedStopPointRef>
      <StopPointRef>260011106</StopPointRef>
      <CommonName>Upland Drive</CommonName>
      <Location>
        <Longitude>-1.276913</Longitude>
        <Latitude>52.689721</Latitude>
      </Location>
    </AnnotatedStopPointRef>
    <AnnotatedStopPointRef>
      <StopPointRef>260011111</StopPointRef>
      <CommonName>Co-op</CommonName>
      <Location>
        <Longitude>-1.278557</Longitude>
        <Latitude>52.685991</Latitude>
      </Location>
    </AnnotatedStopPointRef>
    <AnnotatedStopPointRef>
      <StopPointRef>260011112</StopPointRef>
      <CommonName>Park Avenue</CommonName>
      <Location>
        <Longitude>-1.277714</Longitude>
        <Latitude>52.687757</Latitude>
      </Location>
    </AnnotatedStopPointRef>
    <AnnotatedStopPointRef>
      <StopPointRef>260011105</StopPointRef>
      <CommonName>Hill Lane</CommonName>
      <Location>
        <Longitude>-1.280053</Longitude>
        <Latitude>52.691287</Latitude>
      </Location>
    </AnnotatedStopPointRef>
    <AnnotatedStopPointRef>
      <StopPointRef>260011113</StopPointRef>
      <CommonName>Upland Drive</CommonName>
      <Location>
        <Longitude>-1.277273</Longitude>
        <Latitude>52.689409</Latitude>
      </Location>
    </AnnotatedStopPointRef>
    <AnnotatedStopPointRef>
      <StopPointRef>260011103</StopPointRef>
      <CommonName>Main Street</CommonName>
      <Location>
        <Longitude>-1.277922</Longitude>
        <Latitude>52.690438</Latitude>
      </Location>
    </AnnotatedStopPointRef>
    <AnnotatedStopPointRef>
      <StopPointRef>260011104</StopPointRef>
      <CommonName>Hill Lane</CommonName>
      <Location>
        <Longitude>-1.280909</Longitude>
        <Latitude>52.691436</Latitude>
      </Location>
    </AnnotatedStopPointRef>
    <AnnotatedStopPointRef>
      <StopPointRef>260011126</StopPointRef>
      <CommonName>Cliffe Hill Farm</CommonName>
      <Location>
        <Longitude>-1.289319</Longitude>
        <Latitude>52.695577</Latitude>
      </Location>
    </AnnotatedStopPointRef>
    <AnnotatedStopPointRef>
      <StopPointRef>260011128</StopPointRef>
      <CommonName>Services</CommonName>
      <Location>
        <Longitude>-1.296183</Longitude>
        <Latitude>52.696598</Latitude>
      </Location>
    </AnnotatedStopPointRef>
    <AnnotatedStopPointRef>
      <StopPointRef>260011129</StopPointRef>
      <CommonName>Flying Horse</CommonName>
      <Location>
        <Longitude>-1.303053</Longitude>
        <Latitude>52.700090</Latitude>
      </Location>
    </AnnotatedStopPointRef>
    <AnnotatedStopPointRef>
      <StopPointRef>260011127</StopPointRef>
      <CommonName>Cliffe Hill Farm</CommonName>
      <Location>
        <Longitude>-1.288754</Longitude>
        <Latitude>52.695771</Latitude>
      </Location>
    </AnnotatedStopPointRef>
    <AnnotatedStopPointRef>
      <StopPointRef>260011131</StopPointRef>
      <CommonName>Services</CommonName>
      <Location>
        <Longitude>-1.294987</Longitude>
        <Latitude>52.696438</Latitude>
      </Location>
    </AnnotatedStopPointRef>
    <AnnotatedStopPointRef>
      <StopPointRef>260011132</StopPointRef>
      <CommonName>Upton &amp; Sons</CommonName>
      <Location>
        <Longitude>-1.308546</Longitude>
        <Latitude>52.700824</Latitude>
      </Location>
    </AnnotatedStopPointRef>
    <AnnotatedStopPointRef>
      <StopPointRef>260011133</StopPointRef>
      <CommonName>Billa Barra Lane</CommonName>
      <Location>
        <Longitude>-1.315635</Longitude>
        <Latitude>52.701764</Latitude>
      </Location>
    </AnnotatedStopPointRef>
    <AnnotatedStopPointRef>
      <StopPointRef>260011130</StopPointRef>
      <CommonName>Flying Horse</CommonName>
      <Location>
        <Longitude>-1.302828</Longitude>
        <Latitude>52.700296</Latitude>
      </Location>
    </AnnotatedStopPointRef>
    <AnnotatedStopPointRef>
      <StopPointRef>260011134</StopPointRef>
      <CommonName>Billa Barra Lane</CommonName>
      <Location>
        <Longitude>-1.315337</Longitude>
        <Latitude>52.701888</Latitude>
      </Location>
    </AnnotatedStopPointRef>
    <AnnotatedStopPointRef>
      <StopPointRef>260013306</StopPointRef>
      <CommonName>Charnwood Arms</CommonName>
      <Location>
        <Longitude>-1.325664</Longitude>
        <Latitude>52.702055</Latitude>
      </Location>
    </AnnotatedStopPointRef>
    <AnnotatedStopPointRef>
      <StopPointRef>260013307</StopPointRef>
      <CommonName>Charnwood Arms</CommonName>
      <Location>
        <Longitude>-1.326399</Longitude>
        <Latitude>52.702175</Latitude>
      </Location>
    </AnnotatedStopPointRef>
    <AnnotatedStopPointRef>
      <StopPointRef>260013305</StopPointRef>
      <CommonName>DHL</CommonName>
      <Location>
        <Longitude>-1.339777</Longitude>
        <Latitude>52.701415</Latitude>
      </Location>
    </AnnotatedStopPointRef>
    <AnnotatedStopPointRef>
      <StopPointRef>260013902</StopPointRef>
      <CommonName>Birch Tree</CommonName>
      <Location>
        <Longitude>-1.341484</Longitude>
        <Latitude>52.709929</Latitude>
      </Location>
    </AnnotatedStopPointRef>
    <AnnotatedStopPointRef>
      <StopPointRef>260013304</StopPointRef>
      <CommonName>DHL</CommonName>
      <Location>
        <Longitude>-1.339438</Longitude>
        <Latitude>52.701305</Latitude>
      </Location>
    </AnnotatedStopPointRef>
    <AnnotatedStopPointRef>
      <StopPointRef>260013911</StopPointRef>
      <CommonName>Birch Tree</CommonName>
      <Location>
        <Longitude>-1.341143</Longitude>
        <Latitude>52.709963</Latitude>
      </Location>
    </AnnotatedStopPointRef>
    <AnnotatedStopPointRef>
      <StopPointRef>260013903</StopPointRef>
      <CommonName>Bardon Close</CommonName>
      <Location>
        <Longitude>-1.345770</Longitude>
        <Latitude>52.713369</Latitude>
      </Location>
    </AnnotatedStopPointRef>
    <AnnotatedStopPointRef>
      <StopPointRef>260013904</StopPointRef>
      <CommonName>Waterworks Road</CommonName>
      <Location>
        <Longitude>-1.349470</Longitude>
        <Latitude>52.715403</Latitude>
      </Location>
    </AnnotatedStopPointRef>
    <AnnotatedStopPointRef>
      <StopPointRef>260013910</StopPointRef>
      <CommonName>Bardon Close</CommonName>
      <Location>
        <Longitude>-1.346663</Longitude>
        <Latitude>52.713994</Latitude>
      </Location>
    </AnnotatedStopPointRef>
    <AnnotatedStopPointRef>
      <StopPointRef>260013909</StopPointRef>
      <CommonName>Waterworks Road</CommonName>
      <Location>
        <Longitude>-1.349584</Longitude>
        <Latitude>52.715646</Latitude>
      </Location>
    </AnnotatedStopPointRef>
    <AnnotatedStopPointRef>
      <StopPointRef>260026299</StopPointRef>
      <CommonName>Swan Way</CommonName>
      <Location>
        <Longitude>-1.350100</Longitude>
        <Latitude>52.717779</Latitude>
      </Location>
    </AnnotatedStopPointRef>
    <AnnotatedStopPointRef>
      <StopPointRef>260026298</StopPointRef>
      <CommonName>Swan Way</CommonName>
      <Location>
        <Longitude>-1.350256</Longitude>
        <Latitude>52.717277</Latitude>
      </Location>
    </AnnotatedStopPointRef>
    <AnnotatedStopPointRef>
      <StopPointRef>260013915</StopPointRef>
      <CommonName>Youth Centre</CommonName>
      <Location>
        <Longitude>-1.343064</Longitude>
        <Latitude>52.718100</Latitude>
      </Location>
    </AnnotatedStopPointRef>
    <AnnotatedStopPointRef>
      <StopPointRef>260014083</StopPointRef>
      <CommonName>Woodhouse Road</CommonName>
      <Location>
        <Longitude>-1.339258</Longitude>
        <Latitude>52.719167</Latitude>
      </Location>
    </AnnotatedStopPointRef>
    <AnnotatedStopPointRef>
      <StopPointRef>260013916</StopPointRef>
      <CommonName>Charnborough Road</CommonName>
      <Location>
        <Longitude>-1.335779</Longitude>
        <Latitude>52.720100</Latitude>
      </Location>
    </AnnotatedStopPointRef>
    <AnnotatedStopPointRef>
      <StopPointRef>260026319</StopPointRef>
      <CommonName>Youth Centre</CommonName>
      <Location>
        <Longitude>-1.343244</Longitude>
        <Latitude>52.717921</Latitude>
      </Location>
    </AnnotatedStopPointRef>
    <AnnotatedStopPointRef>
      <StopPointRef>260013917</StopPointRef>
      <CommonName>Smith Crescent</CommonName>
      <Location>
        <Longitude>-1.332624</Longitude>
        <Latitude>52.722168</Latitude>
      </Location>
    </AnnotatedStopPointRef>
    <AnnotatedStopPointRef>
      <StopPointRef>260013921</StopPointRef>
      <CommonName>Woodhouse Road</CommonName>
      <Location>
        <Longitude>-1.339156</Longitude>
        <Latitude>52.719040</Latitude>
      </Location>
    </AnnotatedStopPointRef>
    <AnnotatedStopPointRef>
      <StopPointRef>260013920</StopPointRef>
      <CommonName>Charnborough Road</CommonName>
      <Location>
        <Longitude>-1.336910</Longitude>
        <Latitude>52.719693</Latitude>
      </Location>
    </AnnotatedStopPointRef>
    <AnnotatedStopPointRef>
      <StopPointRef>260014066</StopPointRef>
      <CommonName>Greenhill Road</CommonName>
      <Location>
        <Longitude>-1.334789</Longitude>
        <Latitude>52.723844</Latitude>
      </Location>
    </AnnotatedStopPointRef>
    <AnnotatedStopPointRef>
      <StopPointRef>260080921</StopPointRef>
      <CommonName>Cricket Ground</CommonName>
      <Location>
        <Longitude>-1.338466</Longitude>
        <Latitude>52.725518</Latitude>
      </Location>
    </AnnotatedStopPointRef>
    <AnnotatedStopPointRef>
      <StopPointRef>260013932</StopPointRef>
      <CommonName>Blackwood</CommonName>
      <Location>
        <Longitude>-1.340945</Longitude>
        <Latitude>52.727033</Latitude>
      </Location>
    </AnnotatedStopPointRef>
    <AnnotatedStopPointRef>
      <StopPointRef>260013998</StopPointRef>
      <CommonName>Tressall Road</CommonName>
      <Location>
        <Longitude>-1.343370</Longitude>
        <Latitude>52.729231</Latitude>
      </Location>
    </AnnotatedStopPointRef>
    <AnnotatedStopPointRef>
      <StopPointRef>260013999</StopPointRef>
      <CommonName>Torrington Avenue</CommonName>
      <Location>
        <Longitude>-1.345911</Longitude>
        <Latitude>52.730666</Latitude>
      </Location>
    </AnnotatedStopPointRef>
    <AnnotatedStopPointRef>
      <StopPointRef>260014000</StopPointRef>
      <CommonName>Petersfield Road</CommonName>
      <Location>
        <Longitude>-1.347811</Longitude>
        <Latitude>52.731305</Latitude>
      </Location>
    </AnnotatedStopPointRef>
    <AnnotatedStopPointRef>
      <StopPointRef>260014001</StopPointRef>
      <CommonName>Rosslyn Road</CommonName>
      <Location>
        <Longitude>-1.351379</Longitude>
        <Latitude>52.734381</Latitude>
      </Location>
    </AnnotatedStopPointRef>
    <AnnotatedStopPointRef>
      <StopPointRef>260013919</StopPointRef>
      <CommonName>Bradgate Drive</CommonName>
      <Location>
        <Longitude>-1.333962</Longitude>
        <Latitude>52.720809</Latitude>
      </Location>
    </AnnotatedStopPointRef>
    <AnnotatedStopPointRef>
      <StopPointRef>260013918</StopPointRef>
      <CommonName>Smith Crescent</CommonName>
      <Location>
        <Longitude>-1.331473</Longitude>
        <Latitude>52.722890</Latitude>
      </Location>
    </AnnotatedStopPointRef>
    <AnnotatedStopPointRef>
      <StopPointRef>260014002</StopPointRef>
      <CommonName>George Street</CommonName>
      <Location>
        <Longitude>-1.353565</Longitude>
        <Latitude>52.735805</Latitude>
      </Location>
    </AnnotatedStopPointRef>
    <AnnotatedStopPointRef>
      <StopPointRef>260014003</StopPointRef>
      <CommonName>Ferrers Road</CommonName>
      <Location>
        <Longitude>-1.354092</Longitude>
        <Latitude>52.737192</Latitude>
      </Location>
    </AnnotatedStopPointRef>
    <AnnotatedStopPointRef>
      <StopPointRef>260013922</StopPointRef>
      <CommonName>St David's Crescent</CommonName>
      <Location>
        <Longitude>-1.332130</Longitude>
        <Latitude>52.724440</Latitude>
      </Location>
    </AnnotatedStopPointRef>
    <AnnotatedStopPointRef>
      <StopPointRef>260080204</StopPointRef>
      <CommonName>St David's Crescent</CommonName>
      <Location>
        <Longitude>-1.334031</Longitude>
        <Latitude>52.725988</Latitude>
      </Location>
    </AnnotatedStopPointRef>
    <AnnotatedStopPointRef>
      <StopPointRef>260013925</StopPointRef>
      <CommonName>Castle Rock Drive</CommonName>
      <Location>
        <Longitude>-1.336754</Longitude>
        <Latitude>52.727055</Latitude>
      </Location>
    </AnnotatedStopPointRef>
    <AnnotatedStopPointRef>
      <StopPointRef>260013931</StopPointRef>
      <CommonName>Blackwood</CommonName>
      <Location>
        <Longitude>-1.339522</Longitude>
        <Latitude>52.727151</Latitude>
      </Location>
    </AnnotatedStopPointRef>
    <AnnotatedStopPointRef>
      <StopPointRef>260014008</StopPointRef>
      <CommonName>Tressall Road</CommonName>
      <Location>
        <Longitude>-1.342918</Longitude>
        <Latitude>52.728797</Latitude>
      </Location>
    </AnnotatedStopPointRef>
    <AnnotatedStopPointRef>
      <StopPointRef>260014007</StopPointRef>
      <CommonName>Torrington Avenue</CommonName>
      <Location>
        <Longitude>-1.345070</Longitude>
        <Latitude>52.730463</Latitude>
      </Location>
    </AnnotatedStopPointRef>
    <AnnotatedStopPointRef>
      <StopPointRef>260014006</StopPointRef>
      <CommonName>Petersfield Road</CommonName>
      <Location>
        <Longitude>-1.347294</Longitude>
        <Latitude>52.731222</Latitude>
      </Location>
    </AnnotatedStopPointRef>
    <AnnotatedStopPointRef>
      <StopPointRef>260014061</StopPointRef>
      <CommonName>Rosslyn Road</CommonName>
      <Location>
        <Longitude>-1.350054</Longitude>
        <Latitude>52.733826</Latitude>
      </Location>
    </AnnotatedStopPointRef>
    <AnnotatedStopPointRef>
      <StopPointRef>260014005</StopPointRef>
      <CommonName>George Street</CommonName>
      <Location>
        <Longitude>-1.353314</Longitude>
        <Latitude>52.735732</Latitude>
      </Location>
    </AnnotatedStopPointRef>
    <AnnotatedStopPointRef>
      <StopPointRef>260014120</StopPointRef>
      <CommonName>Methodist Church</CommonName>
      <Location>
        <Longitude>-1.354381</Longitude>
        <Latitude>52.739068</Latitude>
      </Location>
    </AnnotatedStopPointRef>
    <AnnotatedStopPointRef>
      <StopPointRef>260014004</StopPointRef>
      <CommonName>Ferrers Road</CommonName>
      <Location>
        <Longitude>-1.353869</Longitude>
        <Latitude>52.737263</Latitude>
      </Location>
    </AnnotatedStopPointRef>
    <AnnotatedStopPointRef>
      <StopPointRef>260014035</StopPointRef>
      <CommonName>Day Nursery</CommonName>
      <Location>
        <Longitude>-1.355793</Longitude>
        <Latitude>52.740393</Latitude>
      </Location>
    </AnnotatedStopPointRef>
    <AnnotatedStopPointRef>
      <StopPointRef>260014030</StopPointRef>
      <CommonName>Church Lane</CommonName>
      <Location>
        <Longitude>-1.358746</Longitude>
        <Latitude>52.742036</Latitude>
      </Location>
    </AnnotatedStopPointRef>
    <AnnotatedStopPointRef>
      <StopPointRef>260014121</StopPointRef>
      <CommonName>Methodist Church</CommonName>
      <Location>
        <Longitude>-1.354321</Longitude>
        <Latitude>52.739206</Latitude>
      </Location>
    </AnnotatedStopPointRef>
    <AnnotatedStopPointRef>
      <StopPointRef>260014031</StopPointRef>
      <CommonName>Pares Close</CommonName>
      <Location>
        <Longitude>-1.360552</Longitude>
        <Latitude>52.743097</Latitude>
      </Location>
    </AnnotatedStopPointRef>
    <AnnotatedStopPointRef>
      <StopPointRef>260014036</StopPointRef>
      <CommonName>Day Nursery</CommonName>
      <Location>
        <Longitude>-1.355556</Longitude>
        <Latitude>52.740364</Latitude>
      </Location>
    </AnnotatedStopPointRef>
    <AnnotatedStopPointRef>
      <StopPointRef>260014009</StopPointRef>
      <CommonName>Hermitage Leisure Centre</CommonName>
      <Location>
        <Longitude>-1.357248</Longitude>
        <Latitude>52.738153</Latitude>
      </Location>
    </AnnotatedStopPointRef>
    <AnnotatedStopPointRef>
      <StopPointRef>260014012</StopPointRef>
      <CommonName>Grove Road</CommonName>
      <Location>
        <Longitude>-1.358168</Longitude>
        <Latitude>52.736010</Latitude>
      </Location>
    </AnnotatedStopPointRef>
    <AnnotatedStopPointRef>
      <StopPointRef>260014011</StopPointRef>
      <CommonName>Hermitage Leisure Centre</CommonName>
      <Location>
        <Longitude>-1.356768</Longitude>
        <Latitude>52.738528</Latitude>
      </Location>
    </AnnotatedStopPointRef>
    <AnnotatedStopPointRef>
      <StopPointRef>260014010</StopPointRef>
      <CommonName>Grove Road</CommonName>
      <Location>
        <Longitude>-1.357671</Longitude>
        <Latitude>52.736582</Latitude>
      </Location>
    </AnnotatedStopPointRef>
    <AnnotatedStopPointRef>
      <StopPointRef>260014013</StopPointRef>
      <CommonName>Hermitage Court</CommonName>
      <Location>
        <Longitude>-1.360524</Longitude>
        <Latitude>52.734935</Latitude>
      </Location>
    </AnnotatedStopPointRef>
    <AnnotatedStopPointRef>
      <StopPointRef>260014014</StopPointRef>
      <CommonName>Hermitage Road</CommonName>
      <Location>
        <Longitude>-1.363334</Longitude>
        <Latitude>52.733161</Latitude>
      </Location>
    </AnnotatedStopPointRef>
    <AnnotatedStopPointRef>
      <StopPointRef>260014034</StopPointRef>
      <CommonName>Church Lane</CommonName>
      <Location>
        <Longitude>-1.357526</Longitude>
        <Latitude>52.741355</Latitude>
      </Location>
    </AnnotatedStopPointRef>
    <AnnotatedStopPointRef>
      <StopPointRef>260014027</StopPointRef>
      <CommonName>Brooks Lane</CommonName>
      <Location>
        <Longitude>-1.364129</Longitude>
        <Latitude>52.743674</Latitude>
      </Location>
    </AnnotatedStopPointRef>
    <AnnotatedStopPointRef>
      <StopPointRef>260014028</StopPointRef>
      <CommonName>Howe Court</CommonName>
      <Location>
        <Longitude>-1.365883</Longitude>
        <Latitude>52.742227</Latitude>
      </Location>
    </AnnotatedStopPointRef>
    <AnnotatedStopPointRef>
      <StopPointRef>260014033</StopPointRef>
      <CommonName>Pares Close</CommonName>
      <Location>
        <Longitude>-1.359993</Longitude>
        <Latitude>52.742870</Latitude>
      </Location>
    </AnnotatedStopPointRef>
    <AnnotatedStopPointRef>
      <StopPointRef>260014032</StopPointRef>
      <CommonName>Dumps Road</CommonName>
      <Location>
        <Longitude>-1.362209</Longitude>
        <Latitude>52.744239</Latitude>
      </Location>
    </AnnotatedStopPointRef>
    <AnnotatedStopPointRef>
      <StopPointRef>260014051</StopPointRef>
      <CommonName>Dumps Road</CommonName>
      <Location>
        <Longitude>-1.363504</Longitude>
        <Latitude>52.744830</Latitude>
      </Location>
    </AnnotatedStopPointRef>
    <AnnotatedStopPointRef>
      <StopPointRef>260014026</StopPointRef>
      <CommonName>Howe Court</CommonName>
      <Location>
        <Longitude>-1.365895</Longitude>
        <Latitude>52.742371</Latitude>
      </Location>
    </AnnotatedStopPointRef>
    <AnnotatedStopPointRef>
      <StopPointRef>260014029</StopPointRef>
      <CommonName>Church Lane</CommonName>
      <Location>
        <Longitude>-1.368985</Longitude>
        <Latitude>52.739744</Latitude>
      </Location>
    </AnnotatedStopPointRef>
    <AnnotatedStopPointRef>
      <StopPointRef>260014019</StopPointRef>
      <CommonName>Church Lane</CommonName>
      <Location>
        <Longitude>-1.371289</Longitude>
        <Latitude>52.738147</Latitude>
      </Location>
    </AnnotatedStopPointRef>
    <AnnotatedStopPointRef>
      <StopPointRef>260014025</StopPointRef>
      <CommonName>Church Lane</CommonName>
      <Location>
        <Longitude>-1.368892</Longitude>
        <Latitude>52.740005</Latitude>
      </Location>
    </AnnotatedStopPointRef>
    <AnnotatedStopPointRef>
      <StopPointRef>260014024</StopPointRef>
      <CommonName>Church Lane</CommonName>
      <Location>
        <Longitude>-1.371133</Longitude>
        <Latitude>52.738659</Latitude>
      </Location>
    </AnnotatedStopPointRef>
    <AnnotatedStopPointRef>
      <StopPointRef>260014023</StopPointRef>
      <CommonName>Spring Lane</CommonName>
      <Location>
        <Longitude>-1.372392</Longitude>
        <Latitude>52.736616</Latitude>
      </Location>
    </AnnotatedStopPointRef>
    <AnnotatedStopPointRef>
      <StopPointRef>260014020</StopPointRef>
      <CommonName>Spring Lane</CommonName>
      <Location>
        <Longitude>-1.372772</Longitude>
        <Latitude>52.735899</Latitude>
      </Location>
    </AnnotatedStopPointRef>
    <AnnotatedStopPointRef>
      <StopPointRef>260014021</StopPointRef>
      <CommonName>Stephenson College</CommonName>
      <Location>
        <Longitude>-1.373729</Longitude>
        <Latitude>52.734286</Latitude>
      </Location>
    </AnnotatedStopPointRef>
    <AnnotatedStopPointRef>
      <StopPointRef>260014022</StopPointRef>
      <CommonName>Stephenson College</CommonName>
      <Location>
        <Longitude>-1.373922</Longitude>
        <Latitude>52.734206</Latitude>
      </Location>
    </AnnotatedStopPointRef>
    <AnnotatedStopPointRef>
      <StopPointRef>260014080</StopPointRef>
      <CommonName>Comet Way</CommonName>
      <Location>
        <Longitude>-1.374233</Longitude>
        <Latitude>52.730081</Latitude>
      </Location>
    </AnnotatedStopPointRef>
    <AnnotatedStopPointRef>
      <StopPointRef>260080073</StopPointRef>
      <CommonName>Atlas Road</CommonName>
      <Location>
        <Longitude>-1.368533</Longitude>
        <Latitude>52.728510</Latitude>
      </Location>
    </AnnotatedStopPointRef>
    <AnnotatedStopPointRef>
      <StopPointRef>260014018</StopPointRef>
      <CommonName>Hermitage Court</CommonName>
      <Location>
        <Longitude>-1.360223</Longitude>
        <Latitude>52.735230</Latitude>
      </Location>
    </AnnotatedStopPointRef>
    <AnnotatedStopPointRef>
      <StopPointRef>260014015</StopPointRef>
      <CommonName>Stephenson Way</CommonName>
      <Location>
        <Longitude>-1.365426</Longitude>
        <Latitude>52.731850</Latitude>
      </Location>
    </AnnotatedStopPointRef>
    <AnnotatedStopPointRef>
      <StopPointRef>260013949</StopPointRef>
      <CommonName>Albert Road</CommonName>
      <Location>
        <Longitude>-1.367279</Longitude>
        <Latitude>52.726619</Latitude>
      </Location>
    </AnnotatedStopPointRef>
    <AnnotatedStopPointRef>
      <StopPointRef>260014017</StopPointRef>
      <CommonName>Hermitage Road</CommonName>
      <Location>
        <Longitude>-1.362824</Longitude>
        <Latitude>52.733598</Latitude>
      </Location>
    </AnnotatedStopPointRef>
    <AnnotatedStopPointRef>
      <StopPointRef>260014016</StopPointRef>
      <CommonName>Stephenson Way</CommonName>
      <Location>
        <Longitude>-1.365424</Longitude>
        <Latitude>52.731967</Latitude>
      </Location>
    </AnnotatedStopPointRef>
    <AnnotatedStopPointRef>
      <StopPointRef>260013950</StopPointRef>
      <CommonName>Ford Garage</CommonName>
      <Location>
        <Longitude>-1.368676</Longitude>
        <Latitude>52.724209</Latitude>
      </Location>
    </AnnotatedStopPointRef>
    <AnnotatedStopPointRef>
      <StopPointRef>260013941</StopPointRef>
      <CommonName>Family Centre</CommonName>
      <Location>
        <Longitude>-1.371925</Longitude>
        <Latitude>52.724756</Latitude>
      </Location>
    </AnnotatedStopPointRef>
    <AnnotatedStopPointRef>
      <StopPointRef>260013986</StopPointRef>
      <CommonName>Memorial Square</CommonName>
      <Location>
        <Longitude>-1.375778</Longitude>
        <Latitude>52.725604</Latitude>
      </Location>
    </AnnotatedStopPointRef>
    <AnnotatedStopPointRef>
      <StopPointRef>260014073</StopPointRef>
      <CommonName>Comet Way</CommonName>
      <Location>
        <Longitude>-1.374389</Longitude>
        <Latitude>52.730595</Latitude>
      </Location>
    </AnnotatedStopPointRef>
    <AnnotatedStopPointRef>
      <StopPointRef>260013987</StopPointRef>
      <CommonName>Snibston Discovery Park</CommonName>
      <Location>
        <Longitude>-1.381342</Longitude>
        <Latitude>52.726873</Latitude>
      </Location>
    </AnnotatedStopPointRef>
    <AnnotatedStopPointRef>
      <StopPointRef>260080072</StopPointRef>
      <CommonName>Atlas Road</CommonName>
      <Location>
        <Longitude>-1.369073</Longitude>
        <Latitude>52.728509</Latitude>
      </Location>
    </AnnotatedStopPointRef>
    <AnnotatedStopPointRef>
      <StopPointRef>260013988</StopPointRef>
      <CommonName>Ravenstone Road</CommonName>
      <Location>
        <Longitude>-1.385798</Longitude>
        <Latitude>52.728038</Latitude>
      </Location>
    </AnnotatedStopPointRef>
    <AnnotatedStopPointRef>
      <StopPointRef>260014067</StopPointRef>
      <CommonName>Morrisons</CommonName>
      <Location>
        <Longitude>-1.367127</Longitude>
        <Latitude>52.729927</Latitude>
      </Location>
    </AnnotatedStopPointRef>
    <AnnotatedStopPointRef>
      <StopPointRef>260013989</StopPointRef>
      <CommonName>Belmont Drive</CommonName>
      <Location>
        <Longitude>-1.390484</Longitude>
        <Latitude>52.729618</Latitude>
      </Location>
    </AnnotatedStopPointRef>
    <AnnotatedStopPointRef>
      <StopPointRef>260013948</StopPointRef>
      <CommonName>Albert Road</CommonName>
      <Location>
        <Longitude>-1.367359</Longitude>
        <Latitude>52.727213</Latitude>
      </Location>
    </AnnotatedStopPointRef>
    <AnnotatedStopPointRef>
      <StopPointRef>260013947</StopPointRef>
      <CommonName>Ford Garage</CommonName>
      <Location>
        <Longitude>-1.368791</Longitude>
        <Latitude>52.724434</Latitude>
      </Location>
    </AnnotatedStopPointRef>
    <AnnotatedStopPointRef>
      <StopPointRef>260013942</StopPointRef>
      <CommonName>Family Centre</CommonName>
      <Location>
        <Longitude>-1.371998</Longitude>
        <Latitude>52.724882</Latitude>
      </Location>
    </AnnotatedStopPointRef>
    <AnnotatedStopPointRef>
      <StopPointRef>260014071</StopPointRef>
      <CommonName>Memorial Square</CommonName>
      <Location>
        <Longitude>-1.374032</Longitude>
        <Latitude>52.725531</Latitude>
      </Location>
    </AnnotatedStopPointRef>
    <AnnotatedStopPointRef>
      <StopPointRef>260014089</StopPointRef>
      <CommonName>Memorial Square</CommonName>
      <Location>
        <Longitude>-1.376115</Longitude>
        <Latitude>52.725812</Latitude>
      </Location>
    </AnnotatedStopPointRef>
    <AnnotatedStopPointRef>
      <StopPointRef>260013993</StopPointRef>
      <CommonName>Snibston Discovery Park</CommonName>
      <Location>
        <Longitude>-1.380116</Longitude>
        <Latitude>52.726633</Latitude>
      </Location>
    </AnnotatedStopPointRef>
    <AnnotatedStopPointRef>
      <StopPointRef>260013990</StopPointRef>
      <CommonName>Swannington Road</CommonName>
      <Location>
        <Longitude>-1.393844</Longitude>
        <Latitude>52.730794</Latitude>
      </Location>
    </AnnotatedStopPointRef>
    <AnnotatedStopPointRef>
      <StopPointRef>260026315</StopPointRef>
      <CommonName>Ravenstone Road</CommonName>
      <Location>
        <Longitude>-1.385442</Longitude>
        <Latitude>52.728081</Latitude>
      </Location>
    </AnnotatedStopPointRef>
    <AnnotatedStopPointRef>
      <StopPointRef>260015600</StopPointRef>
      <CommonName>Hoo Ash</CommonName>
      <Location>
        <Longitude>-1.394308</Longitude>
        <Latitude>52.732568</Latitude>
      </Location>
    </AnnotatedStopPointRef>
    <AnnotatedStopPointRef>
      <StopPointRef>260013992</StopPointRef>
      <CommonName>Belmont Drive</CommonName>
      <Location>
        <Longitude>-1.389672</Longitude>
        <Latitude>52.729470</Latitude>
      </Location>
    </AnnotatedStopPointRef>
    <AnnotatedStopPointRef>
      <StopPointRef>260013991</StopPointRef>
      <CommonName>Swannington Road</CommonName>
      <Location>
        <Longitude>-1.392885</Longitude>
        <Latitude>52.730547</Latitude>
      </Location>
    </AnnotatedStopPointRef>
    <AnnotatedStopPointRef>
      <StopPointRef>260015602</StopPointRef>
      <CommonName>Hoo Ash</CommonName>
      <Location>
        <Longitude>-1.394068</Longitude>
        <Latitude>52.732818</Latitude>
      </Location>
    </AnnotatedStopPointRef>
    <AnnotatedStopPointRef>
      <StopPointRef>260015603</StopPointRef>
      <CommonName>Railway</CommonName>
      <Location>
        <Longitude>-1.392602</Longitude>
        <Latitude>52.736029</Latitude>
      </Location>
    </AnnotatedStopPointRef>
    <AnnotatedStopPointRef>
      <StopPointRef>260015601</StopPointRef>
      <CommonName>Railway</CommonName>
      <Location>
        <Longitude>-1.392938</Longitude>
        <Latitude>52.735258</Latitude>
      </Location>
    </AnnotatedStopPointRef>
    <AnnotatedStopPointRef>
      <StopPointRef>260014062</StopPointRef>
      <CommonName>New Close</CommonName>
      <Location>
        <Longitude>-1.390237</Longitude>
        <Latitude>52.737815</Latitude>
      </Location>
    </AnnotatedStopPointRef>
    <AnnotatedStopPointRef>
      <StopPointRef>260015605</StopPointRef>
      <CommonName>Spring Lane</CommonName>
      <Location>
        <Longitude>-1.387297</Longitude>
        <Latitude>52.740461</Latitude>
      </Location>
    </AnnotatedStopPointRef>
    <AnnotatedStopPointRef>
      <StopPointRef>260015604</StopPointRef>
      <CommonName>Station Hill</CommonName>
      <Location>
        <Longitude>-1.390854</Longitude>
        <Latitude>52.737126</Latitude>
      </Location>
    </AnnotatedStopPointRef>
    <AnnotatedStopPointRef>
      <StopPointRef>260015612</StopPointRef>
      <CommonName>Spring Lane</CommonName>
      <Location>
        <Longitude>-1.387422</Longitude>
        <Latitude>52.739967</Latitude>
      </Location>
    </AnnotatedStopPointRef>
    <AnnotatedStopPointRef>
      <StopPointRef>260015606</StopPointRef>
      <CommonName>Burton Lane</CommonName>
      <Location>
        <Longitude>-1.386511</Longitude>
        <Latitude>52.742632</Latitude>
      </Location>
    </AnnotatedStopPointRef>
    <AnnotatedStopPointRef>
      <StopPointRef>260015607</StopPointRef>
      <CommonName>Manor Farm</CommonName>
      <Location>
        <Longitude>-1.384387</Longitude>
        <Latitude>52.745120</Latitude>
      </Location>
    </AnnotatedStopPointRef>
    <AnnotatedStopPointRef>
      <StopPointRef>260015608</StopPointRef>
      <CommonName>Jeffcoats Lane</CommonName>
      <Location>
        <Longitude>-1.385714</Longitude>
        <Latitude>52.747707</Latitude>
      </Location>
    </AnnotatedStopPointRef>
    <AnnotatedStopPointRef>
      <StopPointRef>260015613</StopPointRef>
      <CommonName>Windmill Hill</CommonName>
      <Location>
        <Longitude>-1.387190</Longitude>
        <Latitude>52.749162</Latitude>
      </Location>
    </AnnotatedStopPointRef>
    <AnnotatedStopPointRef>
      <StopPointRef>260015617</StopPointRef>
      <CommonName>Nottingham Road</CommonName>
      <Location>
        <Longitude>-1.390251</Longitude>
        <Latitude>52.752756</Latitude>
      </Location>
    </AnnotatedStopPointRef>
    <AnnotatedStopPointRef>
      <StopPointRef>260015611</StopPointRef>
      <CommonName>Burton Lane</CommonName>
      <Location>
        <Longitude>-1.386549</Longitude>
        <Latitude>52.742048</Latitude>
      </Location>
    </AnnotatedStopPointRef>
    <AnnotatedStopPointRef>
      <StopPointRef>260015610</StopPointRef>
      <CommonName>Manor Farm</CommonName>
      <Location>
        <Longitude>-1.384862</Longitude>
        <Latitude>52.743999</Latitude>
      </Location>
    </AnnotatedStopPointRef>
    <AnnotatedStopPointRef>
      <StopPointRef>260015900</StopPointRef>
      <CommonName>George Inn</CommonName>
      <Location>
        <Longitude>-1.398935</Longitude>
        <Latitude>52.751497</Latitude>
      </Location>
    </AnnotatedStopPointRef>
    <AnnotatedStopPointRef>
      <StopPointRef>260015609</StopPointRef>
      <CommonName>Jeffcoats Lane</CommonName>
      <Location>
        <Longitude>-1.385083</Longitude>
        <Latitude>52.747254</Latitude>
      </Location>
    </AnnotatedStopPointRef>
    <AnnotatedStopPointRef>
      <StopPointRef>260015615</StopPointRef>
      <CommonName>Windmill Hill</CommonName>
      <Location>
        <Longitude>-1.387711</Longitude>
        <Latitude>52.750010</Latitude>
      </Location>
    </AnnotatedStopPointRef>
    <AnnotatedStopPointRef>
      <StopPointRef>260015614</StopPointRef>
      <CommonName>Peggs Green</CommonName>
      <Location>
        <Longitude>-1.388760</Longitude>
        <Latitude>52.752308</Latitude>
      </Location>
    </AnnotatedStopPointRef>
    <AnnotatedStopPointRef>
      <StopPointRef>260015616</StopPointRef>
      <CommonName>Nottingham Road</CommonName>
      <Location>
        <Longitude>-1.391526</Longitude>
        <Latitude>52.752636</Latitude>
      </Location>
    </AnnotatedStopPointRef>
    <AnnotatedStopPointRef>
      <StopPointRef>260015902</StopPointRef>
      <CommonName>George Inn</CommonName>
      <Location>
        <Longitude>-1.398340</Longitude>
        <Latitude>52.751673</Latitude>
      </Location>
    </AnnotatedStopPointRef>
    <AnnotatedStopPointRef>
      <StopPointRef>260015913</StopPointRef>
      <CommonName>Lower Moor</CommonName>
      <Location>
        <Longitude>-1.404933</Longitude>
        <Latitude>52.750553</Latitude>
      </Location>
    </AnnotatedStopPointRef>
    <AnnotatedStopPointRef>
      <StopPointRef>260015901</StopPointRef>
      <CommonName>Lower Moor</CommonName>
      <Location>
        <Longitude>-1.404134</Longitude>
        <Latitude>52.750682</Latitude>
      </Location>
    </AnnotatedStopPointRef>
    <AnnotatedStopPointRef>
      <StopPointRef>260015912</StopPointRef>
      <CommonName>The Cedars</CommonName>
      <Location>
        <Longitude>-1.421356</Longitude>
        <Latitude>52.750017</Latitude>
      </Location>
    </AnnotatedStopPointRef>
    <AnnotatedStopPointRef>
      <StopPointRef>260015911</StopPointRef>
      <CommonName>The Cedars</CommonName>
      <Location>
        <Longitude>-1.421353</Longitude>
        <Latitude>52.750287</Latitude>
      </Location>
    </AnnotatedStopPointRef>
    <AnnotatedStopPointRef>
      <StopPointRef>260013200</StopPointRef>
      <CommonName>Birch Road</CommonName>
      <Location>
        <Longitude>-1.456559</Longitude>
        <Latitude>52.751046</Latitude>
      </Location>
    </AnnotatedStopPointRef>
    <AnnotatedStopPointRef>
      <StopPointRef>260013202</StopPointRef>
      <CommonName>Birch Road</CommonName>
      <Location>
        <Longitude>-1.456765</Longitude>
        <Latitude>52.751155</Latitude>
      </Location>
    </AnnotatedStopPointRef>
    <AnnotatedStopPointRef>
      <StopPointRef>260013201</StopPointRef>
      <CommonName>School</CommonName>
      <Location>
        <Longitude>-1.463128</Longitude>
        <Latitude>52.749404</Latitude>
      </Location>
    </AnnotatedStopPointRef>
    <AnnotatedStopPointRef>
      <StopPointRef>260013253</StopPointRef>
      <CommonName>School</CommonName>
      <Location>
        <Longitude>-1.463827</Longitude>
        <Latitude>52.749183</Latitude>
      </Location>
    </AnnotatedStopPointRef>
    <AnnotatedStopPointRef>
      <StopPointRef>260013203</StopPointRef>
      <CommonName>North Street</CommonName>
      <Location>
        <Longitude>-1.467081</Longitude>
        <Latitude>52.748397</Latitude>
      </Location>
    </AnnotatedStopPointRef>
    <AnnotatedStopPointRef>
      <StopPointRef>260013204</StopPointRef>
      <CommonName>North Street</CommonName>
      <Location>
        <Longitude>-1.467851</Longitude>
        <Latitude>52.748374</Latitude>
      </Location>
    </AnnotatedStopPointRef>
    <AnnotatedStopPointRef>
      <StopPointRef>260013207</StopPointRef>
      <CommonName>Market Street</CommonName>
      <Location>
        <Longitude>-1.471421</Longitude>
        <Latitude>52.747185</Latitude>
      </Location>
    </AnnotatedStopPointRef>
    <AnnotatedStopPointRef>
      <StopPointRef>260013205</StopPointRef>
      <CommonName>Market Street</CommonName>
      <Location>
        <Longitude>-1.471275</Longitude>
        <Latitude>52.747031</Latitude>
      </Location>
    </AnnotatedStopPointRef>
    <AnnotatedStopPointRef>
      <StopPointRef>260013223</StopPointRef>
      <CommonName>Scotts Close</CommonName>
      <Location>
        <Longitude>-1.474570</Longitude>
        <Latitude>52.750228</Latitude>
      </Location>
    </AnnotatedStopPointRef>
    <AnnotatedStopPointRef>
      <StopPointRef>260013224</StopPointRef>
      <CommonName>Holywell Avenue</CommonName>
      <Location>
        <Longitude>-1.473983</Longitude>
        <Latitude>52.753408</Latitude>
      </Location>
    </AnnotatedStopPointRef>
    <AnnotatedStopPointRef>
      <StopPointRef>260013225</StopPointRef>
      <CommonName>Northfields</CommonName>
      <Location>
        <Longitude>-1.475479</Longitude>
        <Latitude>52.755896</Latitude>
      </Location>
    </AnnotatedStopPointRef>
    <AnnotatedStopPointRef>
      <StopPointRef>260013226</StopPointRef>
      <CommonName>Holywell Avenue</CommonName>
      <Location>
        <Longitude>-1.473660</Longitude>
        <Latitude>52.753173</Latitude>
      </Location>
    </AnnotatedStopPointRef>
    <AnnotatedStopPointRef>
      <StopPointRef>260013276</StopPointRef>
      <CommonName>Northfields</CommonName>
      <Location>
        <Longitude>-1.475374</Longitude>
        <Latitude>52.756044</Latitude>
      </Location>
    </AnnotatedStopPointRef>
    <AnnotatedStopPointRef>
      <StopPointRef>260013260</StopPointRef>
      <CommonName>Stowe Close</CommonName>
      <Location>
        <Longitude>-1.475999</Longitude>
        <Latitude>52.754586</Latitude>
      </Location>
    </AnnotatedStopPointRef>
    <AnnotatedStopPointRef>
      <StopPointRef>260070004</StopPointRef>
      <CommonName>Benenden Way</CommonName>
      <Location>
        <Longitude>-1.478599</Longitude>
        <Latitude>52.751532</Latitude>
      </Location>
    </AnnotatedStopPointRef>
    <AnnotatedStopPointRef>
      <StopPointRef>260070219</StopPointRef>
      <CommonName>Stowe Close</CommonName>
      <Location>
        <Longitude>-1.477144</Longitude>
        <Latitude>52.754258</Latitude>
      </Location>
    </AnnotatedStopPointRef>
    <AnnotatedStopPointRef>
      <StopPointRef>260070284</StopPointRef>
      <CommonName>Benenden Way</CommonName>
      <Location>
        <Longitude>-1.479012</Longitude>
        <Latitude>52.751695</Latitude>
      </Location>
    </AnnotatedStopPointRef>
    <AnnotatedStopPointRef>
      <StopPointRef>260013251</StopPointRef>
      <CommonName>Uppingham Drive</CommonName>
      <Location>
        <Longitude>-1.480945</Longitude>
        <Latitude>52.749816</Latitude>
      </Location>
    </AnnotatedStopPointRef>
    <AnnotatedStopPointRef>
      <StopPointRef>260070285</StopPointRef>
      <CommonName>Uppingham Drive</CommonName>
      <Location>
        <Longitude>-1.481243</Longitude>
        <Latitude>52.749646</Latitude>
      </Location>
    </AnnotatedStopPointRef>
    <AnnotatedStopPointRef>
      <StopPointRef>260013209</StopPointRef>
      <CommonName>The Beeches</CommonName>
      <Location>
        <Longitude>-1.484580</Longitude>
        <Latitude>52.750641</Latitude>
      </Location>
    </AnnotatedStopPointRef>
    <AnnotatedStopPointRef>
      <StopPointRef>260013215</StopPointRef>
      <CommonName>The Beeches</CommonName>
      <Location>
        <Longitude>-1.484049</Longitude>
        <Latitude>52.750459</Latitude>
      </Location>
    </AnnotatedStopPointRef>
    <AnnotatedStopPointRef>
      <StopPointRef>260013270</StopPointRef>
      <CommonName>Dickinson Close</CommonName>
      <Location>
        <Longitude>-1.489339</Longitude>
        <Latitude>52.749610</Latitude>
      </Location>
    </AnnotatedStopPointRef>
    <AnnotatedStopPointRef>
      <StopPointRef>260013273</StopPointRef>
      <CommonName>Spring Avenue</CommonName>
      <Location>
        <Longitude>-1.485925</Longitude>
        <Latitude>52.751741</Latitude>
      </Location>
    </AnnotatedStopPointRef>
    <AnnotatedStopPointRef>
      <StopPointRef>260013274</StopPointRef>
      <CommonName>Moira Road</CommonName>
      <Location>
        <Longitude>-1.490859</Longitude>
        <Latitude>52.747054</Latitude>
      </Location>
    </AnnotatedStopPointRef>
    <AnnotatedStopPointRef>
      <StopPointRef>260013271</StopPointRef>
      <CommonName>Dickinson Close</CommonName>
      <Location>
        <Longitude>-1.489495</Longitude>
        <Latitude>52.750131</Latitude>
      </Location>
    </AnnotatedStopPointRef>
    <AnnotatedStopPointRef>
      <StopPointRef>260013275</StopPointRef>
      <CommonName>Moira Road</CommonName>
      <Location>
        <Longitude>-1.490991</Longitude>
        <Latitude>52.747127</Latitude>
      </Location>
    </AnnotatedStopPointRef>
    <AnnotatedStopPointRef>
      <StopPointRef>260013233</StopPointRef>
      <CommonName>Whitehouse Farm</CommonName>
      <Location>
        <Longitude>-1.491973</Longitude>
        <Latitude>52.746753</Latitude>
      </Location>
    </AnnotatedStopPointRef>
    <AnnotatedStopPointRef>
      <StopPointRef>260013255</StopPointRef>
      <CommonName>Whitehouse Farm</CommonName>
      <Location>
        <Longitude>-1.491349</Longitude>
        <Latitude>52.746903</Latitude>
      </Location>
    </AnnotatedStopPointRef>
    <AnnotatedStopPointRef>
      <StopPointRef>260013246</StopPointRef>
      <CommonName>Blackberry Cottge</CommonName>
      <Location>
        <Longitude>-1.496591</Longitude>
        <Latitude>52.745874</Latitude>
      </Location>
    </AnnotatedStopPointRef>
    <AnnotatedStopPointRef>
      <StopPointRef>260013247</StopPointRef>
      <CommonName>Blackberry Cottge</CommonName>
      <Location>
        <Longitude>-1.496175</Longitude>
        <Latitude>52.745944</Latitude>
      </Location>
    </AnnotatedStopPointRef>
    <AnnotatedStopPointRef>
      <StopPointRef>260013236</StopPointRef>
      <CommonName>Dorset Drive</CommonName>
      <Location>
        <Longitude>-1.510363</Longitude>
        <Latitude>52.746309</Latitude>
      </Location>
    </AnnotatedStopPointRef>
    <AnnotatedStopPointRef>
      <StopPointRef>260013134</StopPointRef>
      <CommonName>Dorset Drive</CommonName>
      <Location>
        <Longitude>-1.511282</Longitude>
        <Latitude>52.746187</Latitude>
      </Location>
    </AnnotatedStopPointRef>
    <AnnotatedStopPointRef>
      <StopPointRef>260013133</StopPointRef>
      <CommonName>Blackfordby Lane</CommonName>
      <Location>
        <Longitude>-1.514804</Longitude>
        <Latitude>52.745204</Latitude>
      </Location>
    </AnnotatedStopPointRef>
    <AnnotatedStopPointRef>
      <StopPointRef>260013141</StopPointRef>
      <CommonName>Woodlands Way</CommonName>
      <Location>
        <Longitude>-1.515942</Longitude>
        <Latitude>52.745487</Latitude>
      </Location>
    </AnnotatedStopPointRef>
    <AnnotatedStopPointRef>
      <StopPointRef>260013142</StopPointRef>
      <CommonName>Woodlands Way</CommonName>
      <Location>
        <Longitude>-1.516611</Longitude>
        <Latitude>52.746542</Latitude>
      </Location>
    </AnnotatedStopPointRef>
    <AnnotatedStopPointRef>
      <StopPointRef>260080054</StopPointRef>
      <CommonName>Main Street</CommonName>
      <Location>
        <Longitude>-1.517081</Longitude>
        <Latitude>52.756306</Latitude>
      </Location>
    </AnnotatedStopPointRef>
    <AnnotatedStopPointRef>
      <StopPointRef>260080924</StopPointRef>
      <CommonName>Main Street</CommonName>
      <Location>
        <Longitude>-1.516992</Longitude>
        <Latitude>52.756342</Latitude>
      </Location>
    </AnnotatedStopPointRef>
    <AnnotatedStopPointRef>
      <StopPointRef>260014044</StopPointRef>
      <CommonName>Boothorpe Lane</CommonName>
      <Location>
        <Longitude>-1.517789</Longitude>
        <Latitude>52.757972</Latitude>
      </Location>
    </AnnotatedStopPointRef>
    <AnnotatedStopPointRef>
      <StopPointRef>260012205</StopPointRef>
      <CommonName>Boothorpe Lane</CommonName>
      <Location>
        <Longitude>-1.517878</Longitude>
        <Latitude>52.757946</Latitude>
      </Location>
    </AnnotatedStopPointRef>
    <AnnotatedStopPointRef>
      <StopPointRef>260013377</StopPointRef>
      <CommonName>Bridle Way</CommonName>
      <Location>
        <Longitude>-1.524536</Longitude>
        <Latitude>52.762994</Latitude>
      </Location>
    </AnnotatedStopPointRef>
    <AnnotatedStopPointRef>
      <StopPointRef>260013378</StopPointRef>
      <CommonName>Bridle Way</CommonName>
      <Location>
        <Longitude>-1.524342</Longitude>
        <Latitude>52.763036</Latitude>
      </Location>
    </AnnotatedStopPointRef>
    <AnnotatedStopPointRef>
      <StopPointRef>1000DWHS4863</StopPointRef>
      <CommonName>Butt Lane</CommonName>
      <Location>
        <Longitude>-1.526288</Longitude>
        <Latitude>52.765405</Latitude>
      </Location>
    </AnnotatedStopPointRef>
    <AnnotatedStopPointRef>
      <StopPointRef>1000DWHS4857</StopPointRef>
      <CommonName>Butt Lane</CommonName>
      <Location>
        <Longitude>-1.528318</Longitude>
        <Latitude>52.765449</Latitude>
      </Location>
    </AnnotatedStopPointRef>
    <AnnotatedStopPointRef>
      <StopPointRef>1000DWHS4855</StopPointRef>
      <CommonName>Station Road</CommonName>
      <Location>
        <Longitude>-1.530351</Longitude>
        <Latitude>52.766608</Latitude>
      </Location>
    </AnnotatedStopPointRef>
    <AnnotatedStopPointRef>
      <StopPointRef>1000DWHS4856</StopPointRef>
      <CommonName>Station Road</CommonName>
      <Location>
        <Longitude>-1.529142</Longitude>
        <Latitude>52.765992</Latitude>
      </Location>
    </AnnotatedStopPointRef>
    <AnnotatedStopPointRef>
      <StopPointRef>1000DWHS4813</StopPointRef>
      <CommonName>Blacksmiths Lane</CommonName>
      <Location>
        <Longitude>-1.532558</Longitude>
        <Latitude>52.768028</Latitude>
      </Location>
    </AnnotatedStopPointRef>
    <AnnotatedStopPointRef>
      <StopPointRef>1000DWTG3622</StopPointRef>
      <CommonName>Toll Gate</CommonName>
      <Location>
        <Longitude>-1.535803</Longitude>
        <Latitude>52.769506</Latitude>
      </Location>
    </AnnotatedStopPointRef>
    <AnnotatedStopPointRef>
      <StopPointRef>100000008711</StopPointRef>
      <CommonName>Blacksmiths Lane</CommonName>
      <Location>
        <Longitude>-1.531571</Longitude>
        <Latitude>52.767493</Latitude>
      </Location>
    </AnnotatedStopPointRef>
    <AnnotatedStopPointRef>
      <StopPointRef>1000DWTG3623</StopPointRef>
      <CommonName>Toll Gate</CommonName>
      <Location>
        <Longitude>-1.533587</Longitude>
        <Latitude>52.768850</Latitude>
      </Location>
    </AnnotatedStopPointRef>
    <AnnotatedStopPointRef>
      <StopPointRef>1000DWSF4811</StopPointRef>
      <CommonName>Frederick Street</CommonName>
      <Location>
        <Longitude>-1.540920</Longitude>
        <Latitude>52.769193</Latitude>
      </Location>
    </AnnotatedStopPointRef>
    <AnnotatedStopPointRef>
      <StopPointRef>1000DSSB4809</StopPointRef>
      <CommonName>Woodhouse Street</CommonName>
      <Location>
        <Longitude>-1.544580</Longitude>
        <Latitude>52.769324</Latitude>
      </Location>
    </AnnotatedStopPointRef>
    <AnnotatedStopPointRef>
      <StopPointRef>1000DSDR4802</StopPointRef>
      <CommonName>Ski Centre</CommonName>
      <Location>
        <Longitude>-1.549967</Longitude>
        <Latitude>52.770082</Latitude>
      </Location>
    </AnnotatedStopPointRef>
    <AnnotatedStopPointRef>
      <StopPointRef>1000DSCW4806</StopPointRef>
      <CommonName>Civic Way</CommonName>
      <Location>
        <Longitude>-1.554033</Longitude>
        <Latitude>52.773954</Latitude>
      </Location>
    </AnnotatedStopPointRef>
    <AnnotatedStopPointRef>
      <StopPointRef>1000DWSF4812</StopPointRef>
      <CommonName>Frederick Street</CommonName>
      <Location>
        <Longitude>-1.539258</Longitude>
        <Latitude>52.769357</Latitude>
      </Location>
    </AnnotatedStopPointRef>
    <AnnotatedStopPointRef>
      <StopPointRef>1000DSDR4808</StopPointRef>
      <CommonName>Woodhouse Street</CommonName>
      <Location>
        <Longitude>-1.545970</Longitude>
        <Latitude>52.769563</Latitude>
      </Location>
    </AnnotatedStopPointRef>
    <AnnotatedStopPointRef>
      <StopPointRef>100000008699</StopPointRef>
      <CommonName>Bus Station</CommonName>
      <Location>
        <Longitude>-1.558624</Longitude>
        <Latitude>52.774700</Latitude>
      </Location>
    </AnnotatedStopPointRef>
    <AnnotatedStopPointRef>
      <StopPointRef>1000DSDF4810</StopPointRef>
      <CommonName>Ski Centre</CommonName>
      <Location>
        <Longitude>-1.551428</Longitude>
        <Latitude>52.772155</Latitude>
      </Location>
    </AnnotatedStopPointRef>
    <AnnotatedStopPointRef>
      <StopPointRef>1000DSCW4807</StopPointRef>
      <CommonName>Civic Way</CommonName>
      <Location>
        <Longitude>-1.554460</Longitude>
        <Latitude>52.774288</Latitude>
      </Location>
    </AnnotatedStopPointRef>
  </StopPoints>
  <RouteSections>
    <RouteSection id="rsf_0000">
      <RouteLink id="rl_0000_1">
        <From>
          <StopPointRef>269030079</StopPointRef>
        </From>
        <To>
          <StopPointRef>269030023</StopPointRef>
        </To>
      </RouteLink>
      <RouteLink id="rl_0000_2">
        <From>
          <StopPointRef>269030023</StopPointRef>
        </From>
        <To>
          <StopPointRef>269030024</StopPointRef>
        </To>
      </RouteLink>
      <RouteLink id="rl_0000_3">
        <From>
          <StopPointRef>269030024</StopPointRef>
        </From>
        <To>
          <StopPointRef>269030062</StopPointRef>
        </To>
      </RouteLink>
      <RouteLink id="rl_0000_4">
        <From>
          <StopPointRef>269030062</StopPointRef>
        </From>
        <To>
          <StopPointRef>269030018</StopPointRef>
        </To>
      </RouteLink>
      <RouteLink id="rl_0000_5">
        <From>
          <StopPointRef>269030018</StopPointRef>
        </From>
        <To>
          <StopPointRef>269050014</StopPointRef>
        </To>
      </RouteLink>
      <RouteLink id="rl_0000_6">
        <From>
          <StopPointRef>269050014</StopPointRef>
        </From>
        <To>
          <StopPointRef>269050015</StopPointRef>
        </To>
      </RouteLink>
      <RouteLink id="rl_0000_7">
        <From>
          <StopPointRef>269050015</StopPointRef>
        </From>
        <To>
          <StopPointRef>269056032</StopPointRef>
        </To>
      </RouteLink>
      <RouteLink id="rl_0000_8">
        <From>
          <StopPointRef>269056032</StopPointRef>
        </From>
        <To>
          <StopPointRef>269056033</StopPointRef>
        </To>
      </RouteLink>
      <RouteLink id="rl_0000_9">
        <From>
          <StopPointRef>269056033</StopPointRef>
        </From>
        <To>
          <StopPointRef>269056034</StopPointRef>
        </To>
      </RouteLink>
      <RouteLink id="rl_0000_10">
        <From>
          <StopPointRef>269056034</StopPointRef>
        </From>
        <To>
          <StopPointRef>269056035</StopPointRef>
        </To>
      </RouteLink>
      <RouteLink id="rl_0000_11">
        <From>
          <StopPointRef>269056035</StopPointRef>
        </From>
        <To>
          <StopPointRef>269044000</StopPointRef>
        </To>
      </RouteLink>
      <RouteLink id="rl_0000_12">
        <From>
          <StopPointRef>269044000</StopPointRef>
        </From>
        <To>
          <StopPointRef>269044001</StopPointRef>
        </To>
      </RouteLink>
      <RouteLink id="rl_0000_13">
        <From>
          <StopPointRef>269044001</StopPointRef>
        </From>
        <To>
          <StopPointRef>260003906</StopPointRef>
        </To>
      </RouteLink>
      <RouteLink id="rl_0000_14">
        <From>
          <StopPointRef>260003906</StopPointRef>
        </From>
        <To>
          <StopPointRef>260003907</StopPointRef>
        </To>
      </RouteLink>
      <RouteLink id="rl_0000_15">
        <From>
          <StopPointRef>260003907</StopPointRef>
        </From>
        <To>
          <StopPointRef>260003908</StopPointRef>
        </To>
      </RouteLink>
      <RouteLink id="rl_0000_16">
        <From>
          <StopPointRef>260003908</StopPointRef>
        </From>
        <To>
          <StopPointRef>260003900</StopPointRef>
        </To>
      </RouteLink>
      <RouteLink id="rl_0000_17">
        <From>
          <StopPointRef>260003900</StopPointRef>
        </From>
        <To>
          <StopPointRef>260010700</StopPointRef>
        </To>
      </RouteLink>
      <RouteLink id="rl_0000_18">
        <From>
          <StopPointRef>260010700</StopPointRef>
        </From>
        <To>
          <StopPointRef>260010701</StopPointRef>
        </To>
      </RouteLink>
      <RouteLink id="rl_0000_19">
        <From>
          <StopPointRef>260010701</StopPointRef>
        </From>
        <To>
          <StopPointRef>260010702</StopPointRef>
        </To>
      </RouteLink>
      <RouteLink id="rl_0000_20">
        <From>
          <StopPointRef>260010702</StopPointRef>
        </From>
        <To>
          <StopPointRef>260007610</StopPointRef>
        </To>
      </RouteLink>
      <RouteLink id="rl_0000_21">
        <From>
          <StopPointRef>260007610</StopPointRef>
        </From>
        <To>
          <StopPointRef>260007611</StopPointRef>
        </To>
      </RouteLink>
      <RouteLink id="rl_0000_22">
        <From>
          <StopPointRef>260007611</StopPointRef>
        </From>
        <To>
          <StopPointRef>260007527</StopPointRef>
        </To>
      </RouteLink>
      <RouteLink id="rl_0000_23">
        <From>
          <StopPointRef>260007527</StopPointRef>
        </From>
        <To>
          <StopPointRef>260011100</StopPointRef>
        </To>
      </RouteLink>
      <RouteLink id="rl_0000_24">
        <From>
          <StopPointRef>260011100</StopPointRef>
        </From>
        <To>
          <StopPointRef>260011122</StopPointRef>
        </To>
      </RouteLink>
      <RouteLink id="rl_0000_25">
        <From>
          <StopPointRef>260011122</StopPointRef>
        </From>
        <To>
          <StopPointRef>260011123</StopPointRef>
        </To>
      </RouteLink>
      <RouteLink id="rl_0000_26">
        <From>
          <StopPointRef>260011123</StopPointRef>
        </From>
        <To>
          <StopPointRef>260011124</StopPointRef>
        </To>
      </RouteLink>
      <RouteLink id="rl_0000_27">
        <From>
          <StopPointRef>260011124</StopPointRef>
        </From>
        <To>
          <StopPointRef>260011125</StopPointRef>
        </To>
      </RouteLink>
      <RouteLink id="rl_0000_28">
        <From>
          <StopPointRef>260011125</StopPointRef>
        </From>
        <To>
          <StopPointRef>260011118</StopPointRef>
        </To>
      </RouteLink>
      <RouteLink id="rl_0000_29">
        <From>
          <StopPointRef>260011118</StopPointRef>
        </From>
        <To>
          <StopPointRef>260011119</StopPointRef>
        </To>
      </RouteLink>
      <RouteLink id="rl_0000_30">
        <From>
          <StopPointRef>260011119</StopPointRef>
        </From>
        <To>
          <StopPointRef>260011110</StopPointRef>
        </To>
      </RouteLink>
      <RouteLink id="rl_0000_31">
        <From>
          <StopPointRef>260011110</StopPointRef>
        </From>
        <To>
          <StopPointRef>260011111</StopPointRef>
        </To>
      </RouteLink>
      <RouteLink id="rl_0000_32">
        <From>
          <StopPointRef>260011111</StopPointRef>
        </From>
        <To>
          <StopPointRef>260011112</StopPointRef>
        </To>
      </RouteLink>
      <RouteLink id="rl_0000_33">
        <From>
          <StopPointRef>260011112</StopPointRef>
        </From>
        <To>
          <StopPointRef>260011113</StopPointRef>
        </To>
      </RouteLink>
      <RouteLink id="rl_0000_34">
        <From>
          <StopPointRef>260011113</StopPointRef>
        </From>
        <To>
          <StopPointRef>260011103</StopPointRef>
        </To>
      </RouteLink>
      <RouteLink id="rl_0000_35">
        <From>
          <StopPointRef>260011103</StopPointRef>
        </From>
        <To>
          <StopPointRef>260011104</StopPointRef>
        </To>
      </RouteLink>
      <RouteLink id="rl_0000_36">
        <From>
          <StopPointRef>260011104</StopPointRef>
        </From>
        <To>
          <StopPointRef>260011126</StopPointRef>
        </To>
      </RouteLink>
      <RouteLink id="rl_0000_37">
        <From>
          <StopPointRef>260011126</StopPointRef>
        </From>
        <To>
          <StopPointRef>260011128</StopPointRef>
        </To>
      </RouteLink>
      <RouteLink id="rl_0000_38">
        <From>
          <StopPointRef>260011128</StopPointRef>
        </From>
        <To>
          <StopPointRef>260011129</StopPointRef>
        </To>
      </RouteLink>
      <RouteLink id="rl_0000_39">
        <From>
          <StopPointRef>260011129</StopPointRef>
        </From>
        <To>
          <StopPointRef>260011132</StopPointRef>
        </To>
      </RouteLink>
      <RouteLink id="rl_0000_40">
        <From>
          <StopPointRef>260011132</StopPointRef>
        </From>
        <To>
          <StopPointRef>260011133</StopPointRef>
        </To>
      </RouteLink>
      <RouteLink id="rl_0000_41">
        <From>
          <StopPointRef>260011133</StopPointRef>
        </From>
        <To>
          <StopPointRef>260013306</StopPointRef>
        </To>
      </RouteLink>
      <RouteLink id="rl_0000_42">
        <From>
          <StopPointRef>260013306</StopPointRef>
        </From>
        <To>
          <StopPointRef>260013305</StopPointRef>
        </To>
      </RouteLink>
      <RouteLink id="rl_0000_43">
        <From>
          <StopPointRef>260013305</StopPointRef>
        </From>
        <To>
          <StopPointRef>260013902</StopPointRef>
        </To>
      </RouteLink>
      <RouteLink id="rl_0000_44">
        <From>
          <StopPointRef>260013902</StopPointRef>
        </From>
        <To>
          <StopPointRef>260013903</StopPointRef>
        </To>
      </RouteLink>
      <RouteLink id="rl_0000_45">
        <From>
          <StopPointRef>260013903</StopPointRef>
        </From>
        <To>
          <StopPointRef>260013904</StopPointRef>
        </To>
      </RouteLink>
      <RouteLink id="rl_0000_46">
        <From>
          <StopPointRef>260013904</StopPointRef>
        </From>
        <To>
          <StopPointRef>260026299</StopPointRef>
        </To>
      </RouteLink>
      <RouteLink id="rl_0000_47">
        <From>
          <StopPointRef>260026299</StopPointRef>
        </From>
        <To>
          <StopPointRef>260013915</StopPointRef>
        </To>
      </RouteLink>
      <RouteLink id="rl_0000_48">
        <From>
          <StopPointRef>260013915</StopPointRef>
        </From>
        <To>
          <StopPointRef>260014083</StopPointRef>
        </To>
      </RouteLink>
      <RouteLink id="rl_0000_49">
        <From>
          <StopPointRef>260014083</StopPointRef>
        </From>
        <To>
          <StopPointRef>260013916</StopPointRef>
        </To>
      </RouteLink>
      <RouteLink id="rl_0000_50">
        <From>
          <StopPointRef>260013916</StopPointRef>
        </From>
        <To>
          <StopPointRef>260013917</StopPointRef>
        </To>
      </RouteLink>
      <RouteLink id="rl_0000_51">
        <From>
          <StopPointRef>260013917</StopPointRef>
        </From>
        <To>
          <StopPointRef>260014066</StopPointRef>
        </To>
      </RouteLink>
      <RouteLink id="rl_0000_52">
        <From>
          <StopPointRef>260014066</StopPointRef>
        </From>
        <To>
          <StopPointRef>260080921</StopPointRef>
        </To>
      </RouteLink>
      <RouteLink id="rl_0000_53">
        <From>
          <StopPointRef>260080921</StopPointRef>
        </From>
        <To>
          <StopPointRef>260013932</StopPointRef>
        </To>
      </RouteLink>
      <RouteLink id="rl_0000_54">
        <From>
          <StopPointRef>260013932</StopPointRef>
        </From>
        <To>
          <StopPointRef>260013998</StopPointRef>
        </To>
      </RouteLink>
      <RouteLink id="rl_0000_55">
        <From>
          <StopPointRef>260013998</StopPointRef>
        </From>
        <To>
          <StopPointRef>260013999</StopPointRef>
        </To>
      </RouteLink>
      <RouteLink id="rl_0000_56">
        <From>
          <StopPointRef>260013999</StopPointRef>
        </From>
        <To>
          <StopPointRef>260014000</StopPointRef>
        </To>
      </RouteLink>
      <RouteLink id="rl_0000_57">
        <From>
          <StopPointRef>260014000</StopPointRef>
        </From>
        <To>
          <StopPointRef>260014001</StopPointRef>
        </To>
      </RouteLink>
      <RouteLink id="rl_0000_58">
        <From>
          <StopPointRef>260014001</StopPointRef>
        </From>
        <To>
          <StopPointRef>260014002</StopPointRef>
        </To>
      </RouteLink>
      <RouteLink id="rl_0000_59">
        <From>
          <StopPointRef>260014002</StopPointRef>
        </From>
        <To>
          <StopPointRef>260014003</StopPointRef>
        </To>
      </RouteLink>
      <RouteLink id="rl_0000_60">
        <From>
          <StopPointRef>260014003</StopPointRef>
        </From>
        <To>
          <StopPointRef>260014120</StopPointRef>
        </To>
      </RouteLink>
      <RouteLink id="rl_0000_61">
        <From>
          <StopPointRef>260014120</StopPointRef>
        </From>
        <To>
          <StopPointRef>260014009</StopPointRef>
        </To>
      </RouteLink>
      <RouteLink id="rl_0000_62">
        <From>
          <StopPointRef>260014009</StopPointRef>
        </From>
        <To>
          <StopPointRef>260014012</StopPointRef>
        </To>
      </RouteLink>
      <RouteLink id="rl_0000_63">
        <From>
          <StopPointRef>260014012</StopPointRef>
        </From>
        <To>
          <StopPointRef>260014013</StopPointRef>
        </To>
      </RouteLink>
      <RouteLink id="rl_0000_64">
        <From>
          <StopPointRef>260014013</StopPointRef>
        </From>
        <To>
          <StopPointRef>260014014</StopPointRef>
        </To>
      </RouteLink>
      <RouteLink id="rl_0000_65">
        <From>
          <StopPointRef>260014014</StopPointRef>
        </From>
        <To>
          <StopPointRef>260014015</StopPointRef>
        </To>
      </RouteLink>
      <RouteLink id="rl_0000_66">
        <From>
          <StopPointRef>260014015</StopPointRef>
        </From>
        <To>
          <StopPointRef>260013949</StopPointRef>
        </To>
      </RouteLink>
      <RouteLink id="rl_0000_67">
        <From>
          <StopPointRef>260013949</StopPointRef>
        </From>
        <To>
          <StopPointRef>260013950</StopPointRef>
        </To>
      </RouteLink>
      <RouteLink id="rl_0000_68">
        <From>
          <StopPointRef>260013950</StopPointRef>
        </From>
        <To>
          <StopPointRef>260013941</StopPointRef>
        </To>
      </RouteLink>
      <RouteLink id="rl_0000_69">
        <From>
          <StopPointRef>260013941</StopPointRef>
        </From>
        <To>
          <StopPointRef>260013986</StopPointRef>
        </To>
      </RouteLink>
    </RouteSection>
    <RouteSection id="rsf_0001">
      <RouteLink id="rl_0001_1">
        <From>
          <StopPointRef>260013986</StopPointRef>
        </From>
        <To>
          <StopPointRef>260013987</StopPointRef>
        </To>
      </RouteLink>
      <RouteLink id="rl_0001_2">
        <From>
          <StopPointRef>260013987</StopPointRef>
        </From>
        <To>
          <StopPointRef>260013988</StopPointRef>
        </To>
      </RouteLink>
      <RouteLink id="rl_0001_3">
        <From>
          <StopPointRef>260013988</StopPointRef>
        </From>
        <To>
          <StopPointRef>260013989</StopPointRef>
        </To>
      </RouteLink>
      <RouteLink id="rl_0001_4">
        <From>
          <StopPointRef>260013989</StopPointRef>
        </From>
        <To>
          <StopPointRef>260013990</StopPointRef>
        </To>
      </RouteLink>
      <RouteLink id="rl_0001_5">
        <From>
          <StopPointRef>260013990</StopPointRef>
        </From>
        <To>
          <StopPointRef>260015600</StopPointRef>
        </To>
      </RouteLink>
      <RouteLink id="rl_0001_6">
        <From>
          <StopPointRef>260015600</StopPointRef>
        </From>
        <To>
          <StopPointRef>260015603</StopPointRef>
        </To>
      </RouteLink>
      <RouteLink id="rl_0001_7">
        <From>
          <StopPointRef>260015603</StopPointRef>
        </From>
        <To>
          <StopPointRef>260014062</StopPointRef>
        </To>
      </RouteLink>
      <RouteLink id="rl_0001_8">
        <From>
          <StopPointRef>260014062</StopPointRef>
        </From>
        <To>
          <StopPointRef>260015605</StopPointRef>
        </To>
      </RouteLink>
      <RouteLink id="rl_0001_9">
        <From>
          <StopPointRef>260015605</StopPointRef>
        </From>
        <To>
          <StopPointRef>260015606</StopPointRef>
        </To>
      </RouteLink>
      <RouteLink id="rl_0001_10">
        <From>
          <StopPointRef>260015606</StopPointRef>
        </From>
        <To>
          <StopPointRef>260015607</StopPointRef>
        </To>
      </RouteLink>
      <RouteLink id="rl_0001_11">
        <From>
          <StopPointRef>260015607</StopPointRef>
        </From>
        <To>
          <StopPointRef>260015608</StopPointRef>
        </To>
      </RouteLink>
      <RouteLink id="rl_0001_12">
        <From>
          <StopPointRef>260015608</StopPointRef>
        </From>
        <To>
          <StopPointRef>260015613</StopPointRef>
        </To>
      </RouteLink>
      <RouteLink id="rl_0001_13">
        <From>
          <StopPointRef>260015613</StopPointRef>
        </From>
        <To>
          <StopPointRef>260015617</StopPointRef>
        </To>
      </RouteLink>
      <RouteLink id="rl_0001_14">
        <From>
          <StopPointRef>260015617</StopPointRef>
        </From>
        <To>
          <StopPointRef>260015900</StopPointRef>
        </To>
      </RouteLink>
      <RouteLink id="rl_0001_15">
        <From>
          <StopPointRef>260015900</StopPointRef>
        </From>
        <To>
          <StopPointRef>260015913</StopPointRef>
        </To>
      </RouteLink>
      <RouteLink id="rl_0001_16">
        <From>
          <StopPointRef>260015913</StopPointRef>
        </From>
        <To>
          <StopPointRef>260015912</StopPointRef>
        </To>
      </RouteLink>
      <RouteLink id="rl_0001_17">
        <From>
          <StopPointRef>260015912</StopPointRef>
        </From>
        <To>
          <StopPointRef>260013200</StopPointRef>
        </To>
      </RouteLink>
      <RouteLink id="rl_0001_18">
        <From>
          <StopPointRef>260013200</StopPointRef>
        </From>
        <To>
          <StopPointRef>260013253</StopPointRef>
        </To>
      </RouteLink>
      <RouteLink id="rl_0001_19">
        <From>
          <StopPointRef>260013253</StopPointRef>
        </From>
        <To>
          <StopPointRef>260013203</StopPointRef>
        </To>
      </RouteLink>
      <RouteLink id="rl_0001_20">
        <From>
          <StopPointRef>260013203</StopPointRef>
        </From>
        <To>
          <StopPointRef>260013205</StopPointRef>
        </To>
      </RouteLink>
      <RouteLink id="rl_0001_21">
        <From>
          <StopPointRef>260013205</StopPointRef>
        </From>
        <To>
          <StopPointRef>260013223</StopPointRef>
        </To>
      </RouteLink>
      <RouteLink id="rl_0001_22">
        <From>
          <StopPointRef>260013223</StopPointRef>
        </From>
        <To>
          <StopPointRef>260013224</StopPointRef>
        </To>
      </RouteLink>
      <RouteLink id="rl_0001_23">
        <From>
          <StopPointRef>260013224</StopPointRef>
        </From>
        <To>
          <StopPointRef>260013225</StopPointRef>
        </To>
      </RouteLink>
      <RouteLink id="rl_0001_24">
        <From>
          <StopPointRef>260013225</StopPointRef>
        </From>
        <To>
          <StopPointRef>260013260</StopPointRef>
        </To>
      </RouteLink>
      <RouteLink id="rl_0001_25">
        <From>
          <StopPointRef>260013260</StopPointRef>
        </From>
        <To>
          <StopPointRef>260070004</StopPointRef>
        </To>
      </RouteLink>
      <RouteLink id="rl_0001_26">
        <From>
          <StopPointRef>260070004</StopPointRef>
        </From>
        <To>
          <StopPointRef>260013251</StopPointRef>
        </To>
      </RouteLink>
      <RouteLink id="rl_0001_27">
        <From>
          <StopPointRef>260013251</StopPointRef>
        </From>
        <To>
          <StopPointRef>260013209</StopPointRef>
        </To>
      </RouteLink>
      <RouteLink id="rl_0001_28">
        <From>
          <StopPointRef>260013209</StopPointRef>
        </From>
        <To>
          <StopPointRef>260013270</StopPointRef>
        </To>
      </RouteLink>
      <RouteLink id="rl_0001_29">
        <From>
          <StopPointRef>260013270</StopPointRef>
        </From>
        <To>
          <StopPointRef>260013274</StopPointRef>
        </To>
      </RouteLink>
      <RouteLink id="rl_0001_30">
        <From>
          <StopPointRef>260013274</StopPointRef>
        </From>
        <To>
          <StopPointRef>260013233</StopPointRef>
        </To>
      </RouteLink>
      <RouteLink id="rl_0001_31">
        <From>
          <StopPointRef>260013233</StopPointRef>
        </From>
        <To>
          <StopPointRef>260013246</StopPointRef>
        </To>
      </RouteLink>
      <RouteLink id="rl_0001_32">
        <From>
          <StopPointRef>260013246</StopPointRef>
        </From>
        <To>
          <StopPointRef>260013236</StopPointRef>
        </To>
      </RouteLink>
      <RouteLink id="rl_0001_33">
        <From>
          <StopPointRef>260013236</StopPointRef>
        </From>
        <To>
          <StopPointRef>260013141</StopPointRef>
        </To>
      </RouteLink>
      <RouteLink id="rl_0001_34">
        <From>
          <StopPointRef>260013141</StopPointRef>
        </From>
        <To>
          <StopPointRef>260080054</StopPointRef>
        </To>
      </RouteLink>
      <RouteLink id="rl_0001_35">
        <From>
          <StopPointRef>260080054</StopPointRef>
        </From>
        <To>
          <StopPointRef>260012205</StopPointRef>
        </To>
      </RouteLink>
      <RouteLink id="rl_0001_36">
        <From>
          <StopPointRef>260012205</StopPointRef>
        </From>
        <To>
          <StopPointRef>260013377</StopPointRef>
        </To>
      </RouteLink>
      <RouteLink id="rl_0001_37">
        <From>
          <StopPointRef>260013377</StopPointRef>
        </From>
        <To>
          <StopPointRef>1000DWHS4857</StopPointRef>
        </To>
      </RouteLink>
      <RouteLink id="rl_0001_38">
        <From>
          <StopPointRef>1000DWHS4857</StopPointRef>
        </From>
        <To>
          <StopPointRef>1000DWHS4855</StopPointRef>
        </To>
      </RouteLink>
      <RouteLink id="rl_0001_39">
        <From>
          <StopPointRef>1000DWHS4855</StopPointRef>
        </From>
        <To>
          <StopPointRef>1000DWHS4813</StopPointRef>
        </To>
      </RouteLink>
      <RouteLink id="rl_0001_40">
        <From>
          <StopPointRef>1000DWHS4813</StopPointRef>
        </From>
        <To>
          <StopPointRef>1000DWTG3622</StopPointRef>
        </To>
      </RouteLink>
      <RouteLink id="rl_0001_41">
        <From>
          <StopPointRef>1000DWTG3622</StopPointRef>
        </From>
        <To>
          <StopPointRef>1000DWSF4811</StopPointRef>
        </To>
      </RouteLink>
      <RouteLink id="rl_0001_42">
        <From>
          <StopPointRef>1000DWSF4811</StopPointRef>
        </From>
        <To>
          <StopPointRef>1000DSSB4809</StopPointRef>
        </To>
      </RouteLink>
      <RouteLink id="rl_0001_43">
        <From>
          <StopPointRef>1000DSSB4809</StopPointRef>
        </From>
        <To>
          <StopPointRef>1000DSDR4802</StopPointRef>
        </To>
      </RouteLink>
      <RouteLink id="rl_0001_44">
        <From>
          <StopPointRef>1000DSDR4802</StopPointRef>
        </From>
        <To>
          <StopPointRef>1000DSCW4806</StopPointRef>
        </To>
      </RouteLink>
      <RouteLink id="rl_0001_45">
        <From>
          <StopPointRef>1000DSCW4806</StopPointRef>
        </From>
        <To>
          <StopPointRef>100000008699</StopPointRef>
        </To>
      </RouteLink>
    </RouteSection>
    <RouteSection id="rsf_0002">
      <RouteLink id="rl_0002_1">
        <From>
          <StopPointRef>100000008699</StopPointRef>
        </From>
        <To>
          <StopPointRef>1000DSCW4807</StopPointRef>
        </To>
      </RouteLink>
      <RouteLink id="rl_0002_2">
        <From>
          <StopPointRef>1000DSCW4807</StopPointRef>
        </From>
        <To>
          <StopPointRef>1000DSDF4810</StopPointRef>
        </To>
      </RouteLink>
      <RouteLink id="rl_0002_3">
        <From>
          <StopPointRef>1000DSDF4810</StopPointRef>
        </From>
        <To>
          <StopPointRef>1000DSDR4808</StopPointRef>
        </To>
      </RouteLink>
      <RouteLink id="rl_0002_4">
        <From>
          <StopPointRef>1000DSDR4808</StopPointRef>
        </From>
        <To>
          <StopPointRef>1000DWSF4812</StopPointRef>
        </To>
      </RouteLink>
      <RouteLink id="rl_0002_5">
        <From>
          <StopPointRef>1000DWSF4812</StopPointRef>
        </From>
        <To>
          <StopPointRef>1000DWTG3623</StopPointRef>
        </To>
      </RouteLink>
      <RouteLink id="rl_0002_6">
        <From>
          <StopPointRef>1000DWTG3623</StopPointRef>
        </From>
        <To>
          <StopPointRef>100000008711</StopPointRef>
        </To>
      </RouteLink>
      <RouteLink id="rl_0002_7">
        <From>
          <StopPointRef>100000008711</StopPointRef>
        </From>
        <To>
          <StopPointRef>1000DWHS4856</StopPointRef>
        </To>
      </RouteLink>
      <RouteLink id="rl_0002_8">
        <From>
          <StopPointRef>1000DWHS4856</StopPointRef>
        </From>
        <To>
          <StopPointRef>1000DWHS4863</StopPointRef>
        </To>
      </RouteLink>
      <RouteLink id="rl_0002_9">
        <From>
          <StopPointRef>1000DWHS4863</StopPointRef>
        </From>
        <To>
          <StopPointRef>260013378</StopPointRef>
        </To>
      </RouteLink>
      <RouteLink id="rl_0002_10">
        <From>
          <StopPointRef>260013378</StopPointRef>
        </From>
        <To>
          <StopPointRef>260014044</StopPointRef>
        </To>
      </RouteLink>
      <RouteLink id="rl_0002_11">
        <From>
          <StopPointRef>260014044</StopPointRef>
        </From>
        <To>
          <StopPointRef>260080924</StopPointRef>
        </To>
      </RouteLink>
      <RouteLink id="rl_0002_12">
        <From>
          <StopPointRef>260080924</StopPointRef>
        </From>
        <To>
          <StopPointRef>260013142</StopPointRef>
        </To>
      </RouteLink>
      <RouteLink id="rl_0002_13">
        <From>
          <StopPointRef>260013142</StopPointRef>
        </From>
        <To>
          <StopPointRef>260013133</StopPointRef>
        </To>
      </RouteLink>
      <RouteLink id="rl_0002_14">
        <From>
          <StopPointRef>260013133</StopPointRef>
        </From>
        <To>
          <StopPointRef>260013134</StopPointRef>
        </To>
      </RouteLink>
      <RouteLink id="rl_0002_15">
        <From>
          <StopPointRef>260013134</StopPointRef>
        </From>
        <To>
          <StopPointRef>260013247</StopPointRef>
        </To>
      </RouteLink>
      <RouteLink id="rl_0002_16">
        <From>
          <StopPointRef>260013247</StopPointRef>
        </From>
        <To>
          <StopPointRef>260013255</StopPointRef>
        </To>
      </RouteLink>
      <RouteLink id="rl_0002_17">
        <From>
          <StopPointRef>260013255</StopPointRef>
        </From>
        <To>
          <StopPointRef>260013275</StopPointRef>
        </To>
      </RouteLink>
      <RouteLink id="rl_0002_18">
        <From>
          <StopPointRef>260013275</StopPointRef>
        </From>
        <To>
          <StopPointRef>260013271</StopPointRef>
        </To>
      </RouteLink>
      <RouteLink id="rl_0002_19">
        <From>
          <StopPointRef>260013271</StopPointRef>
        </From>
        <To>
          <StopPointRef>260013273</StopPointRef>
        </To>
      </RouteLink>
      <RouteLink id="rl_0002_20">
        <From>
          <StopPointRef>260013273</StopPointRef>
        </From>
        <To>
          <StopPointRef>260013215</StopPointRef>
        </To>
      </RouteLink>
      <RouteLink id="rl_0002_21">
        <From>
          <StopPointRef>260013215</StopPointRef>
        </From>
        <To>
          <StopPointRef>260070285</StopPointRef>
        </To>
      </RouteLink>
      <RouteLink id="rl_0002_22">
        <From>
          <StopPointRef>260070285</StopPointRef>
        </From>
        <To>
          <StopPointRef>260070284</StopPointRef>
        </To>
      </RouteLink>
      <RouteLink id="rl_0002_23">
        <From>
          <StopPointRef>260070284</StopPointRef>
        </From>
        <To>
          <StopPointRef>260070219</StopPointRef>
        </To>
      </RouteLink>
      <RouteLink id="rl_0002_24">
        <From>
          <StopPointRef>260070219</StopPointRef>
        </From>
        <To>
          <StopPointRef>260013276</StopPointRef>
        </To>
      </RouteLink>
      <RouteLink id="rl_0002_25">
        <From>
          <StopPointRef>260013276</StopPointRef>
        </From>
        <To>
          <StopPointRef>260013226</StopPointRef>
        </To>
      </RouteLink>
      <RouteLink id="rl_0002_26">
        <From>
          <StopPointRef>260013226</StopPointRef>
        </From>
        <To>
          <StopPointRef>260013207</StopPointRef>
        </To>
      </RouteLink>
      <RouteLink id="rl_0002_27">
        <From>
          <StopPointRef>260013207</StopPointRef>
        </From>
        <To>
          <StopPointRef>260013204</StopPointRef>
        </To>
